stop_id,stop_code,stop_name,stop_lat,stop_lon
"691100952","691100952","AVENIDA EVA PERÓN 1249-1299",-34.797232,-58.232208
"628117050","628117050","20 DE SEPTIEMBRE 1787",-34.796415,-58.359195
"6490106165","6490106165","AVENIDA HIPÓLITO YRIGOYEN 12036",-34.795890,-58.408950
"691134825","691134825","CALLE 55 5212",-34.794890,-58.168118
"6427126626","6427126626","B. MAGAN 300-498",-34.794052,-58.615190
"691103264","691103264","CAMINO GENERAL BELGRANO 2599-2649",-34.793978,-58.238223
"628126099","628126099","COLÓN 3486",-34.793355,-58.353488
"6270125457","6270125457","RUBEN DARIO 300-398",-34.789487,-58.525792
"628126689","628126689","CATAMARCA 3100-3198",-34.789232,-58.340508
"6274110164","6274110164","CALLE 14 1581",-34.788393,-58.292323
"628111631","628111631","GENERAL JOSÉ J. ARIAS 499-599",-34.785112,-58.369778
"691127719","691127719","CALLE 137 256",-34.784780,-58.207772
"691134876","691134876","CALLE 158 4397",-34.783342,-58.174212
"6525125202","6525125202","RUTA PROVINCIAL 40 Y 43777",-34.812538,-58.858103
"628101161","628101161","AVENIDA TOMÁS ESPORA 1501-1599",-34.809657,-58.388650
"6260118072","6260118072","AVENIDA V. FAIR 611-627",-34.807492,-58.486087
"6274103879","6274103879","AVENIDA CALCHAQUÍ 3967",-34.806913,-58.233863
"628133090","628133090","MARTÍN RODRÍGUEZ 1000-1034",-34.806278,-58.397072
"628132015","628132015","CAMILO CAVOUR 1200-1298",-34.803832,-58.352020
"628132870","628132870","PRES. ARTURO ILLIA 1800",-34.803092,-58.375215
"691105358","691105358","AVENIDA OTTO BERMBERG_CALLE 144",-34.801532,-58.176152
"628129454","628129454","AVENIDA 17 DE OCTUBRE 700-798",-34.800667,-58.337847
"691129880","691129880","AVENIDA ANTÁRTIDA ARGENTINA 899-999",-34.798865,-58.216892
"628119635","628119635","AVENIDA TOMÁS ESPORA 699-799",-34.798733,-58.388737
"628108751","628108751","AVENIDA LACAZE 5600-5698",-34.798410,-58.324185
"6274134668","6274134668","AV. DONATO ÁLVAREZ 6699-6799",-34.797777,-58.306607
"6274117297","6274117297","JOSÉ IGNACIO GORRITI 3159",-34.797717,-58.260095
"698130219","698130219","TEODORO FUNCHS_CALLE 34",-34.876570,-57.851937
"6274119170","6274119170","AVENIDA EVA PERÓN",-34.872612,-58.275295
"698119104","698119104","CALLE 7_CALLE 162",-34.871880,-57.890498
"6441106769","6441106769","CAMINO PARQUE CENTENARIO_CALLE 486",-34.871017,-58.031692
"698118491","698118491","CALLE 11_AVENIDA MONTEVIDEO",-34.869032,-57.882972
"698127083","698127083","AVENIDA MONTEVIDEO_CALLE 11",-34.868818,-57.883337
"6441108884","6441108884","DIAGONAL 25 DE MAYO 92_CALLE 13B",-34.866843,-58.045678
"6441131332","6441131332","CAMINO PARQUE CENTENARIO_CALLE 460",-34.861680,-58.060313
"6441129212","6441129212","CAMINO PARQUE CENTENARIO_DIAGONAL 449",-34.859998,-58.067257
"628106764","628106764","DOCTOR L. CHIESA 749-799",-34.859232,-58.386872
"6441106477","6441106477","CAMINO PARQUE CENTENARIO_CALLE 422 BIS",-34.855333,-58.075507
"628105944","628105944","JUAN SARCIONE 208",-34.840747,-58.376947
"6245122613","6245122613","CAMINO COSTANERO ALMIRANTE BROWN_CALLE 6",-34.840612,-57.936337
"628117159","628117159","CARLOS MORGANTI 983",-34.838505,-58.370185
"6658134589","6658134589","URQUIZA 500-598",-34.723625,-58.275895
"6658118262","6658118262","AVELLANEDA 1400-1422",-34.723500,-58.300057
"6434123548","6434123548","TUCUMÁN 3402-3500",-34.723197,-58.362760
"6658101970","6658101970","GARIBALDI 381",-34.721828,-58.252593
"6658122968","6658122968","AVENIDA DARDO ROCHA 116",-34.721093,-58.288915
"6658122655","6658122655","OLAVARRÍA 639",-34.721023,-58.246757
"6490129511","6490129511","MILAN 1060",-34.720232,-58.435340
"6427104088","6427104088","AVENIDA CRISTIANÍA 5300-5394",-34.718852,-58.572988
"6434113177","6434113177","AVENIDA HIPÓLITO YRIGOYEN 5502-5600",-34.718450,-58.393893
"635115171","635115171","CANGALLO 6152-6200",-34.718242,-58.334537
"6658106788","6658106788","AV. ISIDORO IRIARTE 1132",-34.718132,-58.236427
"6427123515","6427123515","ZEPPELIN 365-399",-34.717533,-58.582793
"6434102389","6434102389","CALLE PITÁGORAS 3325-3379",-34.716087,-58.355810
"6427129287","6427129287","JUAN SEBASTIÁN BACH 4500",-34.716082,-58.581135
"6658124729","6658124729","AVENIDA OTAMENDI 799-849",-34.715800,-58.245742
"6434107112","6434107112","ITUZAINGÓ 2301-2355",-34.715437,-58.377782
"6882130126","6882130126","ACCESO A LIMA Y ROTONDA LIMA",-34.078080,-59.204392
"628129748","628129748","RAFAEL CALZADA 1800-1848",-34.796312,-58.359133
"6427125193","6427125193","BRIGADIER GENERAL JUAN MANUEL DE ROSAS 17813-17841",-34.793682,-58.632472
"628116346","628116346","DIAGONAL JUAN B. TOLL Y BERNARDET 601-687",-34.793118,-58.383307
"6658109999","6658109999","CALLE 898 6213",-34.792615,-58.306170
"6490127877","6490127877","MACHADO DE ASIS 2901-2999",-34.791297,-58.420027
"691133813","691133813","CLAUDIO RUIZ 5600-5668",-34.790362,-58.165280
"628126082","628126082","JORGE SANTIAGO BYNNON 2600-2698",-34.789292,-58.373827
"6490121226","6490121226","NESTOR DE LA PEÑA 502-600",-34.789022,-58.429242
"628126156","628126156","JORGE 3500-3598",-34.786632,-58.357580
"6260127265","6260127265","COLECTORA CAMINO DE CINTURA 1400-1598",-34.786563,-58.453460
"6427109056","6427109056","BRIGADIER GENERAL JUAN MANUEL DE ROSAS 17036-17048",-34.785752,-58.627250
"691124639","691124639","CALLE 21 1848-1898",-34.783883,-58.233425
"6658126596","6658126596","AVENIDA 893 GUILLERMO HUDSON",-34.783498,-58.303110
"6260111451","6260111451","BOULEVARD BUENOS AIRES 1121",-34.812008,-58.452048
"6274106166","6274106166","JUAN VASQUEZ 343",-34.810658,-58.272005
"628131356","628131356","CAPITÁN DE FRAGATA MOYANO 600-698",-34.807843,-58.411545
"628121115","628121115","AVENIDA HIPÓLITO YRIGOYEN 13057",-34.806872,-58.403472
"6490110278","6490110278","DOYHENARD 910",-34.805917,-58.421680
"6490112005","6490112005","BOULEVARD POLONIA 401-499",-34.805278,-58.427887
"6274107283","6274107283","BATALLA DE ITUZAINGÓ 2800-2848",-34.804590,-58.264015
"6490104244","6490104244","DOCTOR JORGE MELBER 799",-34.803995,-58.416647
"6274100216","6274100216","AVENIDA TENIENTE GENERAL JUAN DOMINGO PERÓN 1400-!",-34.803327,-58.244223
"6658122321","6658122321","AV. DONATO ÁLVAREZ 7000-7098",-34.799520,-58.305335
"628125027","628125027","MITRE 1018",-34.798250,-58.393458
"628131699","628131699","DOMINGO SALABERRY 1000-1098",-34.797770,-58.335917
"698105260","698105260","AVENIDA MONTEVIDEO_CALLE 30",-34.876288,-57.860295
"6274123885","6274123885","DIAGONAL LOS TEHUELCHES 2499-2599",-34.871170,-58.191820
"698100816","698100816","AVENIDA MONTEVIDEO_CALLE 13",-34.870288,-57.880725
"6441129994","6441129994","CALLE 13_CALLE 481",-34.870185,-58.031695
"698130201","698130201","CALLE 7_CALLE 165",-34.868867,-57.888137
"6441125876","6441125876","CAMINO PARQUE CENTENARIO Y BALCARCE",-34.862707,-58.053738
"6270130855","6270130855","MARIANO CASTEX 801-899",-34.853398,-58.503457
"6427112815","6427112815","BRIGADIER GENERAL JUAN MANUEL DE ROSAS 23799-23887",-34.853303,-58.656622
"6441110682","6441110682","CAMINO PARQUE CENTENARIO_CALLE 43",-34.852887,-58.081262
"628102362","628102362","AVENIDA BERLIN 499-599",-34.850075,-58.382278
"628123862","628123862","AVENIDA TOMÁS ESPORA 5319-5399",-34.845730,-58.377060
"6260133675","6260133675","LEANDRO N. ALEM 3147",-34.842705,-58.448152
"6245118351","6245118351","AVENIDA ALMIRANTE BROWN_ESC. PROPULSORA",-34.842618,-57.934345
"6245105049","6245105049","CAMINO COSTANERO ALMIRANTE BROWN_CALLE 10 BIS",-34.838430,-57.939737
"6260124680","6260124680","LEANDRO N. ALEM 2554-2598",-34.838327,-58.451487
"6245134729","6245134729","AVENIDA ALMIRANTE BROWN_DVBA-VIALIDAD",-34.838208,-57.940233
"628130392","628130392","PABLO PODESTA 350-398",-34.836818,-58.377090
"6245124483","6245124483","CAMINO COSTANERO ALMIRANTE BROWN_CALLE 16",-34.836142,-57.944475
"6434122994","6434122994","AV. 9 DE JULIO 3301-3399",-34.725102,-58.366267
"6658113016","6658113016","BRANDSEN 508",-34.723830,-58.248108
"6427127119","6427127119","GUILLERMO MARCONI 5100-5168",-34.722765,-58.580005
"6658117892","6658117892","MIGUEL ÁNGEL MAURIÑO 1910",-34.722208,-58.315778
"6658124297","6658124297","CONDARCO 1-98",-34.722020,-58.285392
"6490108987","6490108987","CLAUDIO DE ALAS 2002-2100",-34.721920,-58.461567
"6490106776","6490106776","PLUMERILLO 781",-34.720745,-58.429183
"6434105294","6434105294","AVENIDA HIPÓLITO YRIGOYEN 5691",-34.720690,-58.394380
"6490113823","6490113823","RECONDO 2169",-34.719693,-58.460102
"6427114905","6427114905","GUILLERMO MARCONI 4501-4599",-34.719580,-58.584248
"6882126382","6882126382","AV. GRAL. LAVALLE Y PELLEGRINI BUENOS AIRES",-34.105350,-59.022807
"6882116322","6882116322","AVENIDA ANTA Y GENERAL PAZ",-34.098993,-59.035467
"628129925","628129925","AVENIDA SAN MARTÍN 3000-3098",-34.794423,-58.362155
"628127350","628127350","HIPÓLITO BOUCHARD 2799-2899",-34.791015,-58.367107
"628108886","628108886","ANEMONA 6181",-34.790582,-58.320530
"628134135","628134135","AVENIDA TOMÁS ESPORA 106-168",-34.788653,-58.389030
"691111026","691111026","CALLE 21 1222",-34.787605,-58.240293
"628127279","628127279","CANALE 2559",-34.787182,-58.375970
"6274132808","6274132808","DARREGUEIRA 471",-34.787115,-58.294515
"6490130810","6490130810","GENERAL EUSTAQUIO FRÍAS 2501-2599",-34.786875,-58.419438
"6490126867","6490126867","HÚSARES 701-799",-34.786007,-58.428060
"6427114540","6427114540","DOMINGO SCARLATTI 5153-5199",-34.784502,-58.647107
"6490129843","6490129843","GENERAL JOSÉ MARÍA PAZ 1701-1799",-34.783275,-58.417782
"628102082","628102082","PINO 102-200",-34.812720,-58.400712
"628101364","628101364","E. BARAKAT 499-599",-34.812018,-58.333755
"628124298","628124298","FALUCHO 1791",-34.808953,-58.372308
"628101712","628101712","RUTA PROVINCIAL 210 1317",-34.806848,-58.388685
"691120347","691120347","CAMINO GENERAL BELGRANO 4600-4648",-34.804510,-58.218755
"628107376","628107376","ADOLFO ALSINA 4227",-34.803277,-58.343460
"628120685","628120685","JULIÁN SEGUNDO DE AGÜERO 2491",-34.801882,-58.353588
"6274102859","6274102859","AVENIDA CALCHAQUÍ 3087",-34.801110,-58.238380
"6274102653","6274102653","NEUQUÉN 1455-1499",-34.799810,-58.257345
"6274100305","6274100305","AVENIDA GENERAL JOSÉ DE SAN MARTÍN 2324",-34.799497,-58.278442
"628119389","628119389","FRANCISCO SEGUÍ 799-899",-34.799015,-58.394603
"6658130689","6658130689","AV. DONATO ÁLVAREZ 6800-6898",-34.798100,-58.306373
"628113722","628113722","AVENIDA HIPÓLITO YRIGOYEN 12226",-34.798072,-58.408302
"628128965","628128965","SOMELLERA 533-599",-34.797675,-58.393898
"6274121341","6274121341","AVENIDA SARMIENTO 9833",-34.872917,-58.275377
"6441132532","6441132532","CALLE 419_CALLE 27",-34.871175,-58.099752
"6270130554","6270130554","MARIANO CASTEX 2101-2199",-34.870830,-58.502400
"6441113633","6441113633","CALLE 13_CALLE 478",-34.868463,-58.035367
"6245111364","6245111364","ORTIZ DE ROSAS_J. MARÍA JEREZ (POLIDEPORTIVO)",-34.863005,-57.901050
"628107812","628107812","DOCTOR L. CHIESA 499-599",-34.856412,-58.387172
"628106899","628106899","AVENIDA BERLIN 1099",-34.852752,-58.387720
"6441124564","6441124564","CALLE 6_CALLE 46",-34.851515,-58.082520
"6245131074","6245131074","SAN MARTÍN_F. CESTINO",-34.849585,-57.919800
"6427130801","6427130801","AVENIDA MONTECARLO 657-699",-34.842922,-58.644650
"628131455","628131455","CARLOS MORGANTI 1199-1299",-34.840698,-58.368360
"628108316","628108316","AVENIDA TOMÁS ESPORA 4599-4699",-34.839537,-58.381332
"6274112114","6274112114","ROTONDA GUTIÉRREZ Y AUTOPISTA BUENOS AIRES - MAR !",-34.839193,-58.190102
"6274118761","6274118761","AVENIDA EVA PERÓN 5706-5798",-34.835377,-58.278090
"6434132735","6434132735","ALMEYRA 2531",-34.724562,-58.382832
"6658109523","6658109523","GARIBALDI 255-299",-34.722772,-58.254460
"6658123497","6658123497","NICOLÁS VIDELA 89",-34.721630,-58.260560
"6427132703","6427132703","DE LA RIESTRA",-34.720392,-58.514300
"6427132117","6427132117","CARLOS CASARES 3653-3667",-34.719202,-58.597120
"6434102978","6434102978","AV. 9 DE JULIO 2602-2700",-34.718665,-58.375202
"6434119485","6434119485","VILLA DE LUJÁN 2101-2199",-34.718417,-58.377812
"6434118025","6434118025","CALLE MARCO AVELLANEDA 2146",-34.717663,-58.413062
"6427109183","6427109183","VIA PEDRO FERRÉ 2699-2799",-34.717625,-58.619258
"6490110761","6490110761","CLAUDIO DE ALAS 2301-2399",-34.717420,-58.465173
"6490112917","6490112917","CLAUDIO DE ALAS 2402-2500",-34.716995,-58.465512
"6434129642","6434129642","JUNCAL 3101-3199",-34.716860,-58.363147
"6434108773","6434108773","VILLA DE LUJÁN 1901-1999",-34.716840,-58.376210
"6434113282","6434113282","CALLE MARCO AVELLANEDA 2201-2229",-34.716788,-58.413595
"6427110321","6427110321","AVENIDA CRISTIANÍA 4004",-34.715430,-58.577562
"6539108353","6539108353","AVENIDA DOCTOR RICARDO BALBÍN 2449-2699",-34.714695,-58.785528
"6882116607","6882116607","AVENIDA ANTÁRTIDA ARGENTINA Y CALLE 40",-34.109407,-59.053623
"691106018","691106018","CAMINO GENERAL BELGRANO 2899-2949",-34.795453,-58.235517
"6260124937","6260124937","AVENIDA LUIS VERNET 1851",-34.795385,-58.480337
"628103272","628103272","RAFAEL ALTAMIRA 1700-1798",-34.794862,-58.357857
"628108546","628108546","AVENIDA LACAZE 6099-6199",-34.794810,-58.317620
"628119556","628119556","RAFAEL ALTAMIRA 1540",-34.793365,-58.359042
"6490135117","6490135117","RECREO",-34.793065,-58.425635
"6490127288","6490127288","LUZURIAGA 301-399",-34.792487,-58.432057
"6658114945","6658114945","AVENIDA GOBERNADOR MONTEVERDE 2961-2999",-34.791168,-58.311210
"691114577","691114577","CALLE 359_CALLE 303",-34.790078,-58.210670
"691132279","691132279","AVENIDA EVA PERÓN 3130",-34.788272,-58.214565
"628122874","628122874","JORGE SANTIAGO BYNNON 2800-2898",-34.787817,-58.371200
"628117383","628117383","CANALE 2599-2699",-34.786512,-58.374727
"628126237","628126237","EL PICAFLOR 3299-3399",-34.786118,-58.328742
"6274134283","6274134283","PEDRO MORAN 502-582",-34.785827,-58.291068
"6658110717","6658110717","AVENIDA JUAN DOMINGO PERÓN 4800-4898",-34.785472,-58.315507
"691126415","691126415","CAMINO GENERAL BELGRANO 1239",-34.784177,-58.256582
"6490107489","6490107489","GENERAL EUSTAQUIO FRÍAS 2201-2299",-34.783745,-58.421842
"6525120601","6525120601","AVENIDA DOCTOR MARCOS PAZ Y HIPÓLITO YRIGOYEN",-34.783662,-58.833260
"628109904","628109904","AVENIDA EVA PERÓN 2350-2368",-34.812282,-58.335018
"6274112759","6274112759","AVENIDA CALCHAQUÍ 4500-4586",-34.811565,-58.230350
"628105662","628105662","AVENIDA SAN MARTÍN 699-799",-34.809567,-58.389198
"628106511","628106511","RUTA PROVINCIAL 16 13180-13318",-34.808973,-58.401785
"6490132588","6490132588","INCA 2347-2499",-34.806720,-58.430138
"6274106421","6274106421","AVENIDA TENIENTE GENERAL JUAN DOMINGO PERÓN 2589",-34.805675,-58.248767
"628104399","628104399","AV. SAN MARTÍN 1405",-34.805307,-58.381535
"628103426","628103426","GARIBALDI 787",-34.805293,-58.346330
"628131043","628131043","DRUMOND 1401-1499",-34.803850,-58.379425
"6274114193","6274114193","ARISTÓBULO DEL VALLE 1924",-34.803385,-58.259257
"6274115474","6274115474","CHUBUT 1204-1272",-34.802565,-58.257637
"6490102411","6490102411","GERMAN KURTH 1702-1800",-34.802335,-58.423185
"628110465","628110465","JULIÁN SEGUNDO DE AGÜERO 2398",-34.801208,-58.354115
"628118681","628118681","ROMAN BRAVO 1395",-34.800982,-58.336420
"6427127577","6427127577","SAUJIL 6960-6966",-34.798977,-58.632058
"691118420","691118420","CALLE 133 A 4252-4300",-34.797297,-58.193142
"6441122317","6441122317","CAMINO GENERAL BELGRANO_CALLE 448",-34.875417,-58.080037
"6441123314","6441123314","CAMINO PARQUE CENTENARIO_CALLE 486",-34.870947,-58.031850
"698112283","698112283","CALLE 7_CALLE 164",-34.870188,-57.889155
"6274104188","6274104188","AVENIDA EVA PERÓN",-34.866933,-58.275710
"6441131064","6441131064","CAMINO GENERAL BELGRANO_CALLE 411",-34.865753,-58.106067
"6245117029","6245117029","BOLIVIA_QUINTANA",-34.860410,-57.918237
"6270129297","6270129297","CONQUISTA DE DESIERTO 402-500",-34.855457,-58.523938
"6441133274","6441133274","CAMINO PARQUE CENTENARIO_CALLE 49",-34.851792,-58.086150
"6441104362","6441104362","CAMINO PARQUE CENTENARIO_CALLE 49",-34.851365,-58.087222
"628126654","628126654","6 DE FEBRERO 16799-16899",-34.849445,-58.397850
"628131240","628131240","JUAN SARCIONE 250-298",-34.840375,-58.376152
"628125303","628125303","CARLOS MORGANTI 1030",-34.838895,-58.369862
"6245119596","6245119596","CAMINO COSTANERO ALMIRANTE BROWN_CALLE 10 A",-34.838795,-57.938947
"628127539","628127539","JUAN SARCIONE 600-698",-34.838213,-58.371755
"6274110142","6274110142","AVENIDA CALCHAQUÍ",-34.835472,-58.202335
"6434114307","6434114307","SEBASTIÁN GABOTO 4014",-34.725430,-58.412775
"6658108093","6658108093","HUMBERTO PRIMO 111",-34.725403,-58.257453
"6434108808","6434108808","AVENIDA HIPÓLITO YRIGOYEN 6002-6100",-34.724885,-58.395258
"6434131092","6434131092","CALLE JOSÉ LEÓN SUÁREZ 1701-1799",-34.724540,-58.418290
"6658133964","6658133964","AVENIDA LA PLATA 169",-34.724437,-58.286542
"6434133728","6434133728","VILLA DE LUJÁN 2809",-34.724168,-58.383812
"6882104395","6882104395","AVENIDA GENERAL LAVALLE Y LÓPEZ Y PLANES",-34.110627,-59.020633
"691102202","691102202","CAMINO GENERAL BELGRANO 3199-3299",-34.796927,-58.232780
"691102201","691102201","CAMINO GENERAL BELGRANO 3199-3299",-34.796915,-58.232773
"628109729","628109729","RAFAEL CALZADA 1800-1848",-34.796467,-58.359028
"628106930","628106930","JORGE SANTIAGO BYNNON 1499-1699",-34.796315,-58.386435
"691106017","691106017","CAMINO GENERAL BELGRANO 2899-2949",-34.795433,-58.235507
"628105137","628105137","AVENIDA SAN MARTÍN 2936",-34.795152,-58.363228
"691120605","691120605","CALLE 163 6332",-34.791957,-58.148428
"6658114944","6658114944","AVENIDA GOBERNADOR MONTEVERDE 2961-2999",-34.791168,-58.311222
"6490129924","6490129924","ARMONÍA 299-399",-34.790985,-58.425070
"628120624","628120624","ANEMONA 6200-6298",-34.790420,-58.320192
"628126892","628126892","CHARCAS SUR 599-649",-34.790110,-58.322323
"6490101704","6490101704","PROFESOR MARINO 1901-1999",-34.789732,-58.416785
"691103417","691103417","CAMINO GENERAL BELGRANO 1799-1895",-34.789032,-58.247375
"6490104527","6490104527","HÚSARES 602-700",-34.787195,-58.430477
"628129990","628129990","TUCUMAN 1399-1499",-34.786878,-58.349063
"691134380","691134380","AVENIDA EVA PERÓN 3329-3399",-34.786330,-58.210948
"6274134475","6274134475","AVENIDA HIPÓLITO YRIGOYEN 1079",-34.785983,-58.272095
"691120404","691120404","CALLE 365 381",-34.785670,-58.206332
"6274109565","6274109565","MONTEVIDEO 3601-3699",-34.811923,-58.258170
"628104992","628104992","ADOLFO ALSINA 3104-3148",-34.811095,-58.357883
"628134449","628134449","FALUCHO 1399-1499",-34.810542,-58.375415
"6274124388","6274124388","JUAN VASQUEZ 613",-34.810472,-58.267845
"628104894","628104894","CAPITÁN DE FRAGATA MOYANO 1090-1098",-34.810225,-58.416350
"628134550","628134550","AMELIA LE MEHAUT DE ANGONELLI 1913",-34.810180,-58.381355
"691133114","691133114","CALLE 53_CALLE 132 A",-34.807330,-58.183382
"628123318","628123318","AV. REPUBLIC ARGENTINA 2199-2299",-34.806613,-58.365232
"6260128745","6260128745","SAN MARTÍN 900-998",-34.805837,-58.460308
"6490119775","6490119775","DOYHENARD 702-800",-34.805195,-58.422245
"6490104298","6490104298","ANTÁRTIDA ARGENTINA 2314",-34.801743,-58.432277
"628109228","628109228","ROMAN BRAVO 1302-1400",-34.800182,-58.336042
"691109374","691109374","AVENIDA CALCHAQUÍ 2850-2888",-34.800107,-58.239123
"6260118900","6260118900","SAN MARTÍN 1802",-34.799932,-58.449138
"628129170","628129170","AVENIDA SEGUROLA 501-599",-34.797955,-58.408723
"628114720","628114720","AVENIDA LACAZE 5707-5795",-34.797490,-58.322512
"6441127974","6441127974","CAMINO GENERAL BELGRANO_CALLE 450 SANTA TERESITA",-34.875900,-58.078047
"6441129300","6441129300","CALLE 13_CALLE 491",-34.875045,-58.020470
"6441130938","6441130938","CALLE 11_CALLE 17",-34.874345,-58.052642
"628113859","628113859","AVENIDA HIPÓLITO YRIGOYEN 19400-19498",-34.873400,-58.389480
"628120702","628120702","AVENIDA HIPÓLITO YRIGOYEN 19071-19093",-34.868023,-58.389527
"6274120280","6274120280","CALLE 1149 1702-1750",-34.867590,-58.197370
"6274128458","6274128458","CALLE 1282 478",-34.866042,-58.191235
"6441131938","6441131938","CAMINO GENERAL BELGRANO_CALLE 411",-34.865560,-58.106537
"6441129532","6441129532","CALLE 12_CALLE CANTILO",-34.864850,-58.041430
"6441129298","6441129298","CAMINO PARQUE CENTENARIO_CALLE 467",-34.864495,-58.045340
"6441119088","6441119088","CAMINO PARQUE CENTENARIO_CALLE 464",-34.863517,-58.049585
"6441119647","6441119647","CALLE 419_CALLE 15",-34.860533,-58.087315
"6441112571","6441112571","CALLE 419_CALLE 13",-34.858722,-58.085202
"6245127722","6245127722","SAN MARTÍN_ARIAS DE SAAVEDRA",-34.852185,-57.916570
"6427128469","6427128469","CARLOS R. RICHET 499-549",-34.847257,-58.647617
"691107385","691107385","CAMINO PARQUE CENTENARIO_CAMINO GENERAL BELGRANO",-34.843830,-58.155428
"628126080","628126080","JUAN SARCIONE 519",-34.838762,-58.372807
"6274102084","6274102084","AVENIDA GUILLERMO HUDSON 3557",-34.836228,-58.238802
"6434131972","6434131972","AV. 9 DE JULIO 3201-3299",-34.724167,-58.367583
"6427105032","6427105032","AVENIDA CRISTIANÍA 6199-6299",-34.723652,-58.566578
"6434110235","6434110235","CENTENARIO URUGUAYO 1701-1799",-34.723640,-58.364197
"6882123949","6882123949","AVENIDA GENERAL LAVALLE Y BERNARDO DE IRIGOYEN",-34.107528,-59.021292
"6274123632","6274123632","AVENIDA CALCHAQUÍ 2555-2587",-34.797152,-58.242968
"628110525","628110525","RODOLFO COLLET 599-699",-34.796905,-58.337798
"628133699","628133699","BENIGNO MACIAS 500",-34.796392,-58.392108
"691117509","691117509","CALLE 149_CALLE 50",-34.794797,-58.175312
"628106192","628106192","LEROUX 1899-1999",-34.792415,-58.347787
"628132979","628132979","CEFERINO RAMÍREZ 3081",-34.792272,-58.362173
"6490122751","6490122751","GENERAL EUSTAQUIO FRÍAS 3102-3200",-34.791865,-58.415453
"628114382","628114382","COLÓN 3682-3698",-34.791830,-58.350527
"628112309","628112309","AVENIDA TOMÁS ESPORA 213-295",-34.790790,-58.388888
"6658123772","6658123772","AVENIDA GOBERNADOR MONTEVERDE 2799-2823",-34.789827,-58.309065
"628115253","628115253","AVENIDA SAN MARTÍN 3600-3698",-34.789737,-58.353560
"628101655","628101655","AVENIDA JUAN DOMINGO PERÓN 5499-5599",-34.789532,-58.312577
"6274132350","6274132350","BOMBERO VOLUNTARIO V. SENZABELLO 2002-2100",-34.788652,-58.259672
"6427109412","6427109412","AVENIDA JOSÉ EQUIZA 6383",-34.788180,-58.624690
"6274122947","6274122947","CALLE 14 1401-1499",-34.787992,-58.291542
"628110702","628110702","FALUCHO 5599-5699",-34.785462,-58.326717
"628132598","628132598","AVENIDA SAN MARTÍN 4400-4436",-34.784300,-58.343997
"6490131789","6490131789","GENERAL EUSTAQUIO FRÍAS 2302-2400",-34.783880,-58.421740
"628127177","628127177","EL PICAFLOR 2999-3099",-34.783485,-58.330655
"628110569","628110569","JOAQUÍN V. GONZÁLEZ 2599-2679",-34.812747,-58.366137
"6274111110","6274111110","CAMINO GENERAL BELGRANO 4406-4500",-34.812485,-58.205075
"6274120097","6274120097","AVENIDA GUILLERMO HUDSON 200-298",-34.812057,-58.258032
"6274105299","6274105299","JUAN VASQUEZ 441",-34.810625,-58.270562
"691126040","691126040","CAMINO GENERAL BELGRANO 5332",-34.808670,-58.211102
"6490128766","6490128766","INCA 2752-2800",-34.808387,-58.433430
"6260127413","6260127413","SAN MARTÍN 700-766",-34.807185,-58.462828
"628107293","628107293","ADOLFO ALSINA 3645",-34.807030,-58.350352
"6260125092","6260125092","NUESTRAS MALVINAS 800-898",-34.806052,-58.476272
"691132069","691132069","CALLE 137 A_CALLE 52 A",-34.805173,-58.181240
"6490126386","6490126386","BAHÍA BLANCA 13-99",-34.804815,-58.438013
"6274132215","6274132215","JUAN DE LA CRUZ CONTRERAS 802-900",-34.804272,-58.266400
"6260130622","6260130622","SAN MARTÍN 1200-1298",-34.803860,-58.456570
"628105111","628105111","AVENIDA LACAZE 4687",-34.803647,-58.333700
"628116306","628116306","AVENIDA SAN MARTÍN 1900-1948",-34.801992,-58.375590
"628106652","628106652","REMEDIOS DE ESCALADA DE SAN MARTÍN 699-799",-34.801788,-58.338265
"691105460","691105460","CAMINO GENERAL BELGRANO 3429-3495",-34.798070,-58.230655
"6441126432","6441126432","CAMINO PARQUE CENTENARIO_CALLE 495",-34.876145,-58.019922
"698131966","698131966","CALLE 30_AVENIDA N. H. BEGUIN",-34.874240,-57.857945
"6441126487","6441126487","CAMINO PARQUE CENTENARIO_CALLE 491",-34.874203,-58.024342
"6441128671","6441128671","CALLE 419_CALLE 27",-34.871312,-58.099912
"6441122424","6441122424","CAMINO GENERAL BELGRANO_CALLE 417",-34.868410,-58.099705
"6274130831","6274130831","CALLE 1149 1751-1799",-34.868242,-58.196535
"6441116879","6441116879","PLAZA SAN MARTÍN_DIAGONAL 4 URQUIZA",-34.866980,-58.048230
"698126584","698126584","AVENIDA MONTEVIDEO_CALLE 6",-34.866122,-57.888292
"6441101607","6441101607","CAMINO PARQUE CENTENARIO_CALLE CANTILO",-34.866092,-58.042145
"6441103375","6441103375","CAMINO GENERAL BELGRANO_CALLE 404",-34.861990,-58.115068
"6329119244","6329119244","ESTACION ZAMUDIO Y ZAMUDIO",-34.856828,-58.894210
"6441128535","6441128535","CALLE 419_CALLE 7",-34.854308,-58.080053
"6441132466","6441132466","CALLE 419_CALLE 4",-34.851453,-58.076720
"6441116370","6441116370","CAMINO PARQUE CENTENARIO_CALLE 56",-34.849813,-58.093580
"691119852","691119852","CAMINO PARQUE CENTENARIO_ESCUELA JUAN VUCETICH",-34.844747,-58.129522
"691113344","691113344","CAMINO GENERAL BELGRANO_DESTACAMENTO - POLICIAL C!",-34.843490,-58.155715
"691121178","691121178","CAMINO GENERAL BELGRANO_CALLE 706",-34.841645,-58.158152
"6882115682","6882115682","AVENIDA ANTÁRTIDA ARGENTINA Y CAMERON",-34.104213,-59.044322
"6490103796","6490103796","COLECTORA CAMINO DE CINTURA 244-392",-34.797230,-58.444862
"628125406","628125406","DOMINGO SALABERRY 299",-34.794507,-58.329365
"628125624","628125624","20 DE SEPTIEMBRE 1499-1599",-34.794325,-58.360290
"628121184","628121184","AVENIDA AMENEDO 1500-1598",-34.792045,-58.390627
"6490123026","6490123026","LA HUELLA 2801-2899",-34.791547,-58.421163
"628124517","628124517","AVENIDA LACAZE 6565-6599",-34.791385,-58.311612
"691131741","691131741","CALLE 59 6213-6299",-34.789498,-58.152675
"6658114828","6658114828","AVENIDA GOBERNADOR MONTEVERDE 2700-2799",-34.789330,-58.308295
"628124146","628124146","ANEMONA 6341",-34.789050,-58.317413
"691132627","691132627","AVENIDA DOCTOR LUIS AGOTE 1201-1299",-34.788728,-58.203605
"6490126936","6490126936","GENERAL EUSTAQUIO FRÍAS 2702-2714",-34.787992,-58.418580
"628119247","628119247","FALUCHO 4999-5099",-34.787717,-58.331100
"6490134328","6490134328","SAN MATEO 2701-2799",-34.787015,-58.414117
"628103845","628103845","GENERAL JOSÉ J. ARIAS 599-699",-34.786165,-58.368937
"628125802","628125802","JORGE 3799-3899",-34.784968,-58.354785
"6490106529","6490106529","AVENIDA ALMIRANTE BROWN 4060-4148",-34.783172,-58.389452
"628115207","628115207","ALMIRANTE SEGUÍ 1417",-34.812215,-58.420360
"6260111450","6260111450","BOULEVARD BUENOS AIRES 1121",-34.812017,-58.452045
"628107282","628107282","ADOLFO ALSINA 3149-3199",-34.810440,-58.356658
"628112320","628112320","AVENIDA EVA PERÓN 2499-2639",-34.810257,-58.335128
"6427122299","6427122299","COMERCIO 7021-7049",-34.810200,-58.636872
"6274107257","6274107257","AVENIDA TENIENTE GENERAL JUAN DOMINGO PERÓN 561-5!",-34.807395,-58.252110
"6274107584","6274107584","DOCTOR SALVADOR SALLARES 1101-1199",-34.807213,-58.263590
"628110904","628110904","EREZCANO 1901-1999",-34.806615,-58.373137
"628108807","628108807","AVENIDA LACAZE 4305-4333",-34.805757,-58.337855
"628134801","628134801","MARCONI 949-1049",-34.804515,-58.348910
"628106870","628106870","RUTA PROVINCIAL 210 1088",-34.803650,-58.388728
"6274104677","6274104677","AVENIDA CALCHAQUÍ 3476",-34.803603,-58.236450
"628104562","628104562","AVENIDA 17 DE OCTUBRE 700-798",-34.800947,-58.337520
"628100321","628100321","AVENIDA LACAZE 5493-5497",-34.799238,-58.325778
"628132504","628132504","AV. SAN MARTÍN 2405",-34.798512,-58.369297
"628113461","628113461","JULIÁN SEGUNDO DE AGÜERO 2009-2099",-34.798087,-58.356438
"698111081","698111081","CALLE 7_CALLE 158",-34.876022,-57.893882
"6441101174","6441101174","CAMINO GENERAL BELGRANO_CALLE 450 SANTA TERESITA",-34.875943,-58.077863
"628133579","628133579","AV. HIPÓLITO YRIGOYEN 19150-19168",-34.869885,-58.389547
"628120406","628120406","RUTA PROVINCIAL 210 1002-1100",-34.861807,-58.385527
"6427118875","6427118875","BRIGADIER GENERAL JUAN MANUEL DE ROSAS 22650-22698",-34.840325,-58.651717
"6274119286","6274119286","AVENIDA GUILLERMO HUDSON 3557",-34.837360,-58.237975
"628122226","628122226","HUGO DE CARRIL 299",-34.835692,-58.379472
"6274120503","6274120503","LUJÁN 582",-34.834605,-58.234707
"6490104744","6490104744","PLUMERILLO 401-449",-34.724675,-58.426130
"6490109629","6490109629","CLAUDIO DE ALAS 1901-1999",-34.722298,-58.461272
"635115657","635115657","FABIAN ONZARI 2083",-34.721575,-58.337833
"6658101807","6658101807","AVENIDA HIPÓLITO YRIGOYEN 424",-34.720782,-58.262213
"6539124144","6539124144","OTERO 99-199",-34.720740,-58.720697
"635130421","635130421","SALCEDO 1695",-34.719907,-58.331890
"635102017","635102017","FABIAN ONZARI 1799",-34.719805,-58.335788
"6434111185","6434111185","HIPÓLITO BOUCHARD 4001-4199",-34.719165,-58.348117
"6658129661","6658129661","AVENIDA LAMADRID 1000-1098",-34.718678,-58.279258
"635132125","635132125","SALCEDO 1502-1600",-34.718668,-58.330450
"6490102343","6490102343","CLAUDIO DE ALAS 2302-2400",-34.718220,-58.464515
"6434120130","6434120130","BV. GOBERNADOR MARTÍN RODRÍGUEZ 3341-3399",-34.717010,-58.357178
"6434121105","6434121105","GENERAL HORNOS 2702-2800",-34.716930,-58.425368
"6490121128","6490121128","PLUMERILLO 1295",-34.716232,-58.432683
"6427131163","6427131163","GUILLERMO MARCONI 3889",-34.715163,-58.590130
"6882122553","6882122553","AVENIDA ANTÁRTIDA ARGENTINA Y CARRIEGO",-34.103292,-59.042770
"6882123252","6882123252","COLECTORA NORTE Y FABRICA QUILMES",-34.102828,-59.144373
"628126455","628126455","CERVANTES SAAVEDRA 3287",-34.795622,-58.355672
"6427121123","6427121123","ARECO 701-799",-34.795615,-58.620137
"628119986","628119986","FALUCHO 3900-3998",-34.794403,-58.344058
"6274114764","6274114764","BOMBERO VOLUNTARIO V. SENZABELLO 702-800",-34.794122,-58.270060
"6427105624","6427105624","AVENIDA JOSÉ EQUIZA 7202-7300",-34.793880,-58.617657
"691122940","691122940","CALLE 163 6499-6599",-34.793607,-58.145963
"628125958","628125958","LEÓNARDO ROSALES 2540",-34.791930,-58.373722
"6260129369","6260129369","AVENIDA LUCIANO VALETTE 2177",-34.790078,-58.451363
"691113072","691113072","25 OMBUES 6196",-34.789700,-58.155560
"628100588","628100588","AV. REPUBLIC ARGENTINA 1099-1199",-34.789317,-58.362450
"628134007","628134007","JORGE 3299-3389",-34.788255,-58.360310
"628126475","628126475","FALUCHO 5416",-34.786963,-58.329642
"628104918","628104918","AVENIDA SAN MARTÍN 4099-4129",-34.785885,-58.346637
"6427114827","6427114827","DOCTOR ENRIQUE SIMÓN PÉREZ 6135",-34.785737,-58.628102
"6274116773","6274116773","PEDRO MORAN 224",-34.783288,-58.293053
"628125018","628125018","GENERAL MIGUEL SOLER 399-493",-34.812052,-58.403997
"6274108512","6274108512","JUAN VASQUEZ 613",-34.810730,-58.267837
"6274124389","6274124389","JUAN VASQUEZ 613",-34.810473,-58.267845
"628115975","628115975","AMELIA LE MEHAUT DE ANGONELLI 1955",-34.810447,-58.381157
"691101165","691101165","CAMINO GENERAL BELGRANO 5424",-34.809702,-58.209513
"628132082","628132082","AVENIDA SAN MARTÍN 850-898",-34.809005,-58.388197
"6274109339","6274109339","JUAN BAUTISTA ALBERDI 3107-3199",-34.808552,-58.272870
"6274107558","6274107558","DOCTOR ADOLFO GRISTEIN 3073",-34.806330,-58.259763
"628103202","628103202","RUTA PROVINCIAL 210 1198",-34.805073,-58.388712
"691121879","691121879","CALLE 137 A 5249-5299",-34.804047,-58.181473
"628112688","628112688","DRUMOND 1402-1500",-34.803267,-58.379920
"628103671","628103671","DRUMOND 1167",-34.801007,-58.381862
"691108086","691108086","CAMINO GENERAL BELGRANO 3703",-34.799865,-58.227332
"6490109018","6490109018","ANTÁRTIDA ARGENTINA 1702-1792",-34.798477,-58.425988
"628127484","628127484","PRES. JUAN DOMINGO PERÓN 3200",-34.797345,-58.357003
"6441129979","6441129979","CALLE 13_CALLE 493",-34.875967,-58.018345
"698112102","698112102","CALLE 4_CALLE 160",-34.873540,-57.894217
"698101559","698101559","AVENIDA MONTEVIDEO_CALLE 19",-34.872928,-57.872435
"6441130253","6441130253","CALLE 13_CALLE 486",-34.872662,-58.025960
"6441114413","6441114413","LACROZE Y C489",-34.872625,-58.028320
"6441126963","6441126963","CALLE 13_CALLE 486",-34.872585,-58.026140
"6441116454","6441116454","CAMINO PARQUE CENTENARIO_CALLE 476",-34.867790,-58.038695
"698122829","698122829","AVENIDA MONTEVIDEO_CALLE 8",-34.867550,-57.885547
"6441115629","6441115629","CAMINO PARQUE CENTENARIO_DIAGONAL 449",-34.859792,-58.067112
"6270103042","6270103042","CONQUISTA DE DESIERTO 301-399",-34.854780,-58.523097
"6427128141","6427128141","BRIGADIER GENERAL JUAN MANUEL DE ROSAS 23100-23424",-34.846927,-58.653897
"628110330","628110330","AVENIDA TOMÁS ESPORA 4899-4999",-34.842292,-58.379427
"628131927","628131927","PABLO PODESTA 156",-34.838687,-58.380562
"628107030","628107030","OLINDA BOZAN 549-599",-34.835047,-58.375547
"691103487","691103487","CALLE 455 1300-1348",-34.834427,-58.185497
"6245117322","6245117322","CAMINO COSTANERO ALMIRANTE BROWN_CALLE 20",-34.834400,-57.947415
"6434130190","6434130190","CNEL. BELTRÁN 341",-34.725427,-58.399803
"6539101156","6539101156","AVENIDA DOCTOR RICARDO BALBÍN Y SUPERI",-34.724407,-58.792420
"635133977","635133977","YAPEYÚ 1902-2000",-34.723562,-58.331838
"6434104316","6434104316","PERGAMINO 2781",-34.723100,-58.384402
"6427102268","6427102268","AVENIDA GENERAL ROJO",-34.723043,-58.536117
"6658115458","6658115458","AVENIDA LAMADRID 1800-1880",-34.722893,-58.287597
"6658121551","6658121551","ANDRÉS BARANDA 628",-34.722570,-58.271327
"6427127658","6427127658","AUTOPISTA TENIENTE GENERAL PABLO RICCHIERI BAJADA",-34.721927,-58.515630
"6274102001","6274102001","AVENIDA GENERAL JOSÉ DE SAN MARTÍN 2069",-34.797160,-58.278925
"691103265","691103265","CAMINO GENERAL BELGRANO 2648",-34.793950,-58.238257
"6427109181","6427109181","PUERTO ARGENTINO 7301-7399",-34.793827,-58.615260
"628129295","628129295","FALUCHO 4399-4499",-34.790857,-58.337185
"628102496","628102496","FALUCHO 4546",-34.790697,-58.336875
"628133040","628133040","LEÓNARDO ROSALES 2599-2699",-34.790650,-58.371432
"628117936","628117936","25 DE MAYO 960",-34.790017,-58.367770
"691115649","691115649","CALLE 55 5900-5976",-34.789087,-58.161038
"691134716","691134716","CALLE 21 1002-1100",-34.788652,-58.242397
"628132821","628132821","LILA 6516",-34.787010,-58.316357
"6490123734","6490123734","HÚSARES 601-699",-34.786603,-58.429237
"6274103078","6274103078","AVENIDA GENERAL JOSÉ DE SAN MARTÍN 1057",-34.786198,-58.278808
"628116430","628116430","FALUCHO 5755-5799",-34.784965,-58.325715
"628110351","628110351","JORGE 3899-3949",-34.784232,-58.353547
"691119231","691119231","CALLE 158 4404",-34.783638,-58.173643
"6490108959","6490108959","ALMIRANTE SEGUÍ 1417",-34.811935,-58.419795
"6490115755","6490115755","BAHÍA BLANCA 673-799",-34.811257,-58.433148
"6260129163","6260129163","INDEPENDENCIA 300-398",-34.810803,-58.466947
"6274123710","6274123710","JUAN VASQUEZ 102-200",-34.810775,-58.275900
"6490116577","6490116577","DOYHENARD 1401-1499",-34.810750,-58.417985
"6274103114","6274103114","AVENIDA BOSQUES 2587",-34.809830,-58.228963
"628120117","628120117","ADOLFO ALSINA 3321",-34.809257,-58.354485
"6490114510","6490114510","BAHÍA BLANCA 480",-34.808725,-58.435037
"6260118306","6260118306","BOULEVARD BUENOS AIRES 1720",-34.808002,-58.444508
"6260100770","6260100770","BOULEVARD BUENOS AIRES 1900-1998",-34.806690,-58.441987
"6274109068","6274109068","AVENIDA TENIENTE GENERAL JUAN DOMINGO PERÓN 1022-!",-34.805422,-58.248282
"628134136","628134136","MARCONI 1097-1099",-34.803710,-58.349813
"6490109655","6490109655","ANTÁRTIDA ARGENTINA 2201-2299",-34.801633,-58.432067
"6274103829","6274103829","FLORENTINO AMEGHINO 3751-3799",-34.801355,-58.255263
"6274113700","6274113700","RÍO NEGRO 1499-1549",-34.800353,-58.256253
"6260129785","6260129785","SAN MARTÍN 1795",-34.800095,-58.449450
"691129879","691129879","AVENIDA ANTÁRTIDA ARGENTINA 899-999",-34.798863,-58.216892
"6270122798","6270122798","EL TREBOL 1-11",-34.870542,-58.543387
"6441115835","6441115835","CAMINO GENERAL BELGRANO_CALLE 419",-34.869200,-58.097852
"698128431","698128431","CALLE 4_CALLE 164",-34.868985,-57.891632
"6441124074","6441124074","DIAGONAL 25 DE MAYO 92_CALLE CANTILO",-34.866265,-58.043013
"698114718","698114718","NUEVA YORK_CALLE 169",-34.862102,-57.890497
"628128488","628128488","MAGDALENA MOTTI DE TIEGHI 1051",-34.861040,-58.382040
"6245125045","6245125045","FRANCISCO CESTINO_AVENIDA BOSSINGA",-34.852055,-57.922947
"628102806","628102806","10 DE AGOSTO 16700-16998",-34.849715,-58.397282
"628115160","628115160","6 DE FEBRERO 16599-16699",-34.847850,-58.398765
"628102488","628102488","6 DE FEBRERO 16299-16399",-34.844997,-58.400855
"6270124284","6270124284","RECONQUISTA 1101-1399",-34.844600,-58.509095
"691101032","691101032","CALLE 413 200-246",-34.837827,-58.187412
"628110621","628110621","AVENIDA TOMÁS ESPORA 4200",-34.835372,-58.384157
"691120379","691120379","DOMINGO SIMONUTTI 1583",-34.834550,-58.182007
"6658110595","6658110595","AVENIDA HIPÓLITO YRIGOYEN 712",-34.725273,-58.258830
"6427108820","6427108820","AUTOPISTA TENIENTE GENERAL PABLO RICCHIERI Y RUTA!",-34.724715,-58.515152
"6658101956","6658101956","RODOLFO LÓPEZ 900-998",-34.724675,-58.272650
"6658127401","6658127401","AVENIDA LA PLATA 29",-34.723247,-58.287343
"6658102654","6658102654","RODOLFO LÓPEZ 415",-34.722657,-58.268515
"635102948","635102948","CAMINO GENERAL BELGRANO 6228",-34.722630,-58.338548
"6658106152","6658106152","AVENIDA HIPÓLITO YRIGOYEN 500-524",-34.722212,-58.261130
"6434104197","6434104197","EVA PERÓN 3301-3399",-34.721562,-58.362450
"6434125861","6434125861","AVENIDA CORONEL LEÓNARDO ROSALES 1401-1437",-34.720565,-58.403948
"6658134820","6658134820","VIEJO BUENO 400-460",-34.720472,-58.296943
"6434111654","6434111654","DARDO ROCHA 3702-3800",-34.720463,-58.411297
"6882117618","6882117618","AVENIDA ANTA Y BOLIVAR",-34.099458,-59.035242
"628132165","628132165","AVENIDA SAN MARTÍN 2700-2738",-34.796490,-58.365652
"691101346","691101346","CAMINO GENERAL BELGRANO 2900-2948",-34.795503,-58.235365
"6260106678","6260106678","AVENIDA LUIS VERNET 1900-1998",-34.793487,-58.481757
"628115579","628115579","DOMINGO SALABERRY 5702-5798",-34.792930,-58.325673
"691133370","691133370","CALLE 163 6231",-34.791610,-58.148970
"6260100362","6260100362","COLECTORA CAMINO DE CINTURA 1028-1098",-34.790338,-58.450640
"628107404","628107404","AVENIDA JUAN DOMINGO PERÓN 5599-5699",-34.790135,-58.312152
"691126560","691126560","AVENIDA DOCTOR A. SABIN 2000-2098",-34.789792,-58.202857
"691103418","691103418","CAMINO GENERAL BELGRANO 1799-1895",-34.789027,-58.247380
"691113697","691113697","AVENIDA DOCTOR A. SABIN 2100-2198",-34.788355,-58.202082
"628134018","628134018","PCIA DE MISIÓNES 3325",-34.786958,-58.331557
"6427120917","6427120917","DOMINGO SCARLATTI 5302-5400",-34.786027,-58.645232
"6658132970","6658132970","AVENIDA GOBERNADOR MONTEVERDE 2297",-34.786027,-58.302905
"691113886","691113886","CALLE 365 404",-34.785860,-58.205827
"6490109365","6490109365","HÚSARES 702-800",-34.785742,-58.427552
"691117983","691117983","AVENIDA VALENTÍN VERGARA 2700-2754",-34.785613,-58.220970
"628111279","628111279","EL PICAFLOR 3100-3198",-34.783857,-58.330237
"628110570","628110570","JOAQUÍN V. GONZÁLEZ 2599-2679",-34.812748,-58.366137
"628112836","628112836","GENERAL MIGUEL SOLER 343",-34.810897,-58.404862
"6274115275","6274115275","JUAN VASQUEZ 926",-34.810642,-58.265382
"6274108201","6274108201","JUAN VASQUEZ 1025",-34.810585,-58.263722
"628101160","628101160","AVENIDA TOMÁS ESPORA 1501-1599",-34.809657,-58.388652
"6274102130","6274102130","AVENIDA GENERAL JOSÉ DE SAN MARTÍN 3100-3198",-34.808297,-58.278047
"691104147","691104147","CAMINO GENERAL BELGRANO 4929-4999",-34.807245,-58.213687
"628116702","628116702","GARIBALDI 600-698",-34.806300,-58.345532
"6260116160","6260116160","BOULEVARD BUENOS AIRES 1995",-34.806255,-58.441142
"628110592","628110592","AVENIDA LACAZE 4266-4298",-34.806027,-58.338310
"6490129747","6490129747","DOCTOR JORGE MELBER 1602-1700",-34.805557,-58.419785
"6274109067","6274109067","AVENIDA TENIENTE GENERAL JUAN DOMINGO PERÓN 1022-!",-34.805423,-58.248282
"6490104780","6490104780","ANTÁRTIDA ARGENTINA 2802-2900",-34.804360,-58.437610
"6274105796","6274105796","AVENIDA CALCHAQUÍ 3476",-34.803748,-58.236262
"6490133507","6490133507","DOCTOR JORGE MELBER 335",-34.802143,-58.412885
"6427116873","6427116873","ARECO 1551-1599",-34.801992,-58.628185
"6274118719","6274118719","CHUBUT 1302-1400",-34.801878,-58.256283
"691115659","691115659","CAMINO GENERAL BELGRANO 4100",-34.801662,-58.223955
"628116986","628116986","AVENIDA 17 DE OCTUBRE 1100-1198",-34.801440,-58.334195
"628125188","628125188","JUAN B. AZOPARDO 2900-2998",-34.801138,-58.359550
"691100887","691100887","CALLE 138 4799-4899",-34.800660,-58.185317
"628134791","628134791","ROMAN BRAVO 1202-1300",-34.799550,-58.335825
"628121801","628121801","AV. SAN MARTÍN 2327",-34.799088,-58.370340
"6490108781","6490108781","ANTÁRTIDA ARGENTINA 1779-1799",-34.798907,-58.426787
"6441105752","6441105752","CALLE 419_CALLE 133",-34.876532,-58.106080
"6441133324","6441133324","CALLE 497_CALLE 11",-34.876463,-58.012717
"698133851","698133851","CALLE 30_PUNTA PIEDRAS",-34.876133,-57.859472
"6441127864","6441127864","CAMINO GENERAL BELGRANO_CALLE 443",-34.873788,-58.086203
"698111903","698111903","AVENIDA MONTEVIDEO_CALLE 21",-34.873632,-57.869933
"6441125111","6441125111","CAMINO GENERAL BELGRANO_CALLE 426",-34.873150,-58.088337
"6441125110","6441125110","CAMINO GENERAL BELGRANO_CALLE 426",-34.873148,-58.088337
"6441133030","6441133030","CALLE 419_CALLE 28 BIS",-34.873125,-58.102053
"6441119097","6441119097","CAMINO GENERAL BELGRANO_CALLE 408",-34.864235,-58.109790
"6441103391","6441103391","CAMINO PARQUE CENTENARIO_CALLE 426",-34.856988,-58.072422
"6441127037","6441127037","CAMINO PARQUE CENTENARIO_DIAGONAL 424",-34.855992,-58.073985
"6274121625","6274121625","AVENIDA EVA PERÓN",-34.849990,-58.278475
"6427100957","6427100957","CARLOS R. RICHET 749-799",-34.849725,-58.644567
"6427135113","6427135113","ARECO 900-998",-34.796577,-58.620678
"628130179","628130179","AVENIDA BILLINGHURST 209-249",-34.796272,-58.341585
"628104124","628104124","20 DE SEPTIEMBRE 1599-1699",-34.795018,-58.359757
"628132589","628132589","AVENIDA SAN MARTÍN 3000-3098",-34.794452,-58.362032
"628100210","628100210","AVENIDA LACAZE 6279-6299",-34.793982,-58.316012
"628120494","628120494","AVENIDA LACAZE 6300-6336",-34.793715,-58.315767
"628115148","628115148","AVENIDA SAN MARTÍN 3100-3130",-34.793673,-58.360622
"691129739","691129739","AVENIDA VALENTÍN VERGARA 200-214",-34.792645,-58.215487
"6490133932","6490133932","NESTOR DE LA PEÑA 101-199",-34.792387,-58.426737
"6490122752","6490122752","GENERAL EUSTAQUIO FRÍAS 3102-3200",-34.791863,-58.415453
"6427119756","6427119756","AVENIDA JOSÉ EQUIZA 6770",-34.790668,-58.621547
"691113755","691113755","AVENIDA EVA PERÓN 2785",-34.790510,-58.218955
"691122886","691122886","AVENIDA VALENTÍN VERGARA 1-39",-34.790102,-58.217570
"6270126305","6270126305","ALFONSINA STORNI 100-148",-34.789333,-58.523388
"6274123923","6274123923","CALLE 14 1602-1686",-34.788523,-58.292588
"691114478","691114478","CALLE 21 1101-1199",-34.787685,-58.240445
"691123834","691123834","AVENIDA DOCTOR LUIS AGOTE 1502-1600",-34.786897,-58.202623
"6490134023","6490134023","GENERAL JOSÉ MARÍA PAZ 1701-1799",-34.783323,-58.417995
"628106130","628106130","ADOLFO ALSINA 2973",-34.811997,-58.359607
"6490112389","6490112389","DOCTOR JORGE MELBER 2702-2800",-34.811448,-58.431185
"628132523","628132523","FALUCHO 1395",-34.811330,-58.376957
"628128006","628128006","JUAN JOSÉ CASTELLI 1497",-34.806140,-58.383735
"6490119024","6490119024","LUJÁN 1801-1899",-34.805645,-58.421892
"691102186","691102186","CAMINO GENERAL BELGRANO 4400-4498",-34.803245,-58.221060
"628112099","628112099","AVENIDA 17 DE OCTUBRE 1016",-34.801217,-58.335305
"698132940","698132940","CALLE 4_CALLE 158",-34.875995,-57.895837
"6441128424","6441128424","CALLE 419_CALLE 31",-34.874508,-58.103688
"6441132132","6441132132","CAMINO PARQUE CENTENARIO_CALLE 489",-34.872385,-58.028500
"628116757","628116757","DOCTOR L. CHIESA 722",-34.858747,-58.386925
"6245128495","6245128495","AVENIDA BOSSINGA_BARRAGÁN",-34.852820,-57.922185
"6270104843","6270104843","LUCIO SALVADORES 350-398",-34.848777,-58.514558
"6427127331","6427127331","AVENIDA MONTECARLO 999-1099",-34.846903,-58.639670
"691118142","691118142","CAMINO PARQUE CENTENARIO_ESC. POLICIAS JULIO DANT!",-34.844225,-58.143305
"628104320","628104320","AVENIDA TOMÁS ESPORA 5000-5098",-34.843182,-58.378840
"628101178","628101178","FERNANDO LAHILLE 299-399",-34.842597,-58.363613
"6427115668","6427115668","HUGO WAST 199-299",-34.836903,-58.646382
"691114619","691114619","DOMINGO SIMONUTTI 1528",-34.834382,-58.182540
"6490134697","6490134697","ISAAC NEWTON 4902-5000",-34.724943,-58.478185
"6434134076","6434134076","HERNANDO DE MAGALLANES 1716",-34.724007,-58.416897
"635125546","635125546","DOMINGO MARTINTO 2088",-34.723847,-58.333242
"6434120672","6434120672","DARDO ROCHA 4102-4200",-34.723567,-58.417102
"6427103709","6427103709","HIPÓLITO VIEYTES 4501-4599",-34.722987,-58.486165
"6434112298","6434112298","CENTENARIO URUGUAYO 1702-1800",-34.722957,-58.363415
"6434114566","6434114566","DARDO ROCHA 4002-4100",-34.722927,-58.415920
"6434114922","6434114922","CALLE MARCO AVELLANEDA 1495",-34.722427,-58.409495
"6434125670","6434125670","CALLE MARCO AVELLANEDA 1502-1600",-34.722045,-58.409777
"6434135023","6434135023","GENERAL HORNOS 2101-2199",-34.721570,-58.421833
"6658131499","6658131499","AVENIDA MOZART 999-1049",-34.721397,-58.238630
"6490104387","6490104387","CAMINO DE LA RIVERA SUD 2662",-34.718547,-58.473877
"635103904","635103904","YAPEYÚ 1182",-34.718175,-58.325702
"6427125930","6427125930","DE LA RIESTRA Y AVENIDA CAMINO DE CINTURA Y RUTA !",-34.717725,-58.511102
"6490126095","6490126095","PRESIDENTE JUAN DOMINGO PERÓN 4352",-34.716888,-58.449217
"6490104000","6490104000","CAMINO DE LA RIVERA SUD 2626",-34.716322,-58.471365
"6658116173","6658116173","LUIS MARÍA CAMPOS 1099-1199",-34.715907,-58.306672
"6658102140","6658102140","AVENIDA LOS QUILMES 1009-1099",-34.715865,-58.305357
"6882113814","6882113814","FLORESTANO ANDRADE ATUCHA 99-199 BUENOS AIRES",-34.096290,-59.028347
"6882130313","6882130313","CALLE 2 Y TERMINAL LIMA",-34.042402,-59.194937
"628131108","628131108","DOMINGO SALABERRY 600-698",-34.796055,-58.332463
"628111365","628111365","AV. DONATO ÁLVAREZ 27",-34.793155,-58.309947
"628128654","628128654","12 DE OCTUBRE 1350-1362",-34.793070,-58.363175
"6658124943","6658124943","CALLE 898 2649-2699",-34.793027,-58.305647
"6270118865","6270118865","RUBEN DARIO 399-499",-34.791977,-58.527105
"628110054","628110054","DOMINGO SALABERRY 5899-6099",-34.791677,-58.322082
"6658116117","6658116117","CALLE 898 6000-6098",-34.791193,-58.307450
"628129122","628129122","25 DE MAYO 999-1099",-34.790328,-58.367520
"6490113844","6490113844","ANTÁRTIDA ARGENTINA 127",-34.790303,-58.410212
"691116018","691116018","AUTOPISTA BUENOS AIRES - MAR DE PLATA",-34.790302,-58.157145
"628107405","628107405","AVENIDA JUAN DOMINGO PERÓN 5599-5699",-34.790132,-58.312152
"6260109516","6260109516","AVENIDA JORGE NEWBERY",-34.789685,-58.518205
"6658126228","6658126228","AVENIDA JUAN DOMINGO PERÓN 5502",-34.789322,-58.312732
"6274110163","6274110163","FÉLIX DE AZARA 702-800",-34.788400,-58.292335
"628100556","628100556","AVENIDA SAN MARTÍN 3699-3799",-34.788378,-58.351150
"628110005","628110005","AV. JUAN DOMINGO PERÓN 615",-34.786633,-58.314663
"628113998","628113998","JORGE SANTIAGO BYNNON 2899-2999",-34.786563,-58.368918
"691106443","691106443","CAMINO GENERAL BELGRANO 1418-1500",-34.785807,-58.253338
"6427103663","6427103663","BRIGADIER GENERAL JUAN MANUEL DE ROSAS 16560-16998",-34.785017,-58.626288
"628125409","628125409","AV. JUAN DOMINGO PERÓN 4599-4699",-34.784358,-58.316297
"6274110622","6274110622","AVENIDA HIPÓLITO YRIGOYEN 1802-1900",-34.783147,-58.266910
"6490134667","6490134667","AVELLANEDA 1502",-34.783130,-58.414617
"6260123807","6260123807","COLECTORA CAMINO DE CINTURA 1099-1199",-34.811873,-58.434365
"6274105300","6274105300","JUAN VASQUEZ 441",-34.810637,-58.270562
"691114006","691114006","CAMINO GENERAL BELGRANO 5199-5399",-34.809265,-58.210147
"6245134546","6245134546","AVENIDA ALMIRANTE BROWN_CALLE 100",-34.809040,-57.981888
"628114563","628114563","GENERAL MIGUEL SOLER 49-79",-34.807200,-58.407628
"6490121854","6490121854","1 DE MARZO 2101-2199",-34.806875,-58.426422
"628101713","628101713","RUTA PROVINCIAL 210 1317",-34.806850,-58.388685
"628106449","628106449","AV. REPUBLIC ARGENTINA 2378",-34.806752,-58.365245
"6490129265","6490129265","CAPITÁN DE FRAGATA MOYANO 320",-34.806363,-58.408585
"6490117702","6490117702","DOCTOR JORGE MELBER 1701-1799",-34.806255,-58.421145
"628108806","628108806","AVENIDA LACAZE 4305-4333",-34.805772,-58.337847
"6490123259","6490123259","DOCTOR JORGE MELBER 775",-34.804100,-58.416875
"6274105945","6274105945","LEANDRO N. ALEM 75",-34.803785,-58.278202
"628110165","628110165","TOMÁS NOTHER 549-599",-34.803715,-58.396053
"6260109547","6260109547","AVENIDA LUCIANO VALETTE 1-23",-34.803483,-58.477963
"6490132968","6490132968","DOCTOR JORGE MELBER 401-499",-34.802577,-58.413773
"691114738","691114738","CALLE 133 A 4399-4599",-34.799320,-58.190767
"628121752","628121752","JUAN B. AZOPARDO 3099-3199",-34.799107,-58.355655
"628124542","628124542","DRUMOND 912",-34.798520,-58.383945
"6441129245","6441129245","CALLE 473 BIS_SARMIENTO (15 A)",-34.874845,-58.047160
"6441102947","6441102947","CALLE 419_CAMINO GENERAL BELGRANO",-34.869552,-58.097023
"6441120978","6441120978","CAMINO PARQUE CENTENARIO_CALLE 476",-34.867647,-58.038963
"628119232","628119232","AVENIDA HIPÓLITO YRIGOYEN 19000-19056",-34.867052,-58.389500
"6441132623","6441132623","CAMINO PARQUE CENTENARIO_CALLE 11",-34.864418,-58.045568
"6270113786","6270113786","AVENIDA PATRICIOS 299-399",-34.864140,-58.535220
"6274122034","6274122034","AVENIDA EVA PERÓN",-34.863160,-58.276472
"6270113184","6270113184","AVENIDA PATRICIOS 583-599",-34.862890,-58.533523
"6441128536","6441128536","CAMINO PARQUE CENTENARIO_CALLE 46",-34.852632,-58.082823
"6427116551","6427116551","JULIO VERNE 1099-1199",-34.851205,-58.640833
"628120115","628120115","6 DE FEBRERO 16599-16699",-34.847770,-58.398857
"6882108523","6882108523","AVENIDA ANTÁRTIDA ARGENTINA Y CALLE 2",-34.104900,-59.045605
"6882128000","6882128000","ACCESO A LIMA Y SILOS",-34.070162,-59.201953
"691110298","691110298","AVENIDA CALCHAQUÍ 2550-2596",-34.796863,-58.243325
"628111549","628111549","AVENIDA SAN MARTÍN 2661",-34.796785,-58.366217
"628102400","628102400","AVENIDA LACAZE 5900-5998",-34.796637,-58.320985
"6427108051","6427108051","GENERAL RIVAS 7220-7248",-34.795832,-58.620050
"6490125845","6490125845","AVENIDA HIPÓLITO YRIGOYEN 12031",-34.795732,-58.408955
"628102578","628102578","AVENIDA LACAZE 6134",-34.795363,-58.318642
"6274123423","6274123423","BOMBERO VOLUNTARIO V. SENZABELLO 684",-34.794252,-58.270305
"691102274","691102274","AVENIDA CALCHAQUÍ 2200-2298",-34.794007,-58.247275
"628100209","628100209","AVENIDA LACAZE 6279-6299",-34.793983,-58.316012
"6427114925","6427114925","AVENIDA JOSÉ EQUIZA 7115",-34.793803,-58.617955
"628131297","628131297","AV. REPUBLIC ARGENTINA 1350-1398",-34.793197,-58.363397
"6490117362","6490117362","RECONQUISTA 501-599",-34.793117,-58.412738
"628132493","628132493","JORGE SANTIAGO BYNNON 2204-2298",-34.792102,-58.378980
"6490114863","6490114863","AVENIDA HIPÓLITO YRIGOYEN 11568",-34.791042,-58.408808
"691134875","691134875","CALLE 161 5855-5899",-34.790617,-58.154250
"6274131675","6274131675","CALLE 14 1502-1600",-34.788132,-58.291813
"6274107787","6274107787","DARREGUEIRA 538",-34.787515,-58.294192
"628104535","628104535","AVENIDA JUAN DOMINGO PERÓN 5099-5199",-34.787103,-58.314330
"628131284","628131284","SAN JUAN 1571-1599",-34.786235,-58.345540
"691120403","691120403","CALLE 365 381",-34.785695,-58.206340
"691122017","691122017","AVENIDA RIGOLLEAU 98",-34.785400,-58.253622
"628131113","628131113","PCIA DE MISIÓNES 3170",-34.785065,-58.332740
"628123806","628123806","FALUCHO 5920-5998",-34.783823,-58.323477
"691105150","691105150","AVENIDA RIGOLLEAU 699-749",-34.783688,-58.250485
"6274115654","6274115654","AVENIDA SARMIENTO 13",-34.812135,-58.277765
"628127843","628127843","AVENIDA HIPÓLITO YRIGOYEN 13387-13499",-34.811937,-58.399582
"6490125095","6490125095","BAHÍA BLANCA 802-900",-34.811738,-58.432817
"6245122967","6245122967","AVENIDA ALMIRANTE BROWN_CALLE 96",-34.811500,-57.980682
"628125093","628125093","FALUCHO 1400-1498",-34.811095,-58.376505
"6274129201","6274129201","GENERAL HILARIO LAGOS 8",-34.811085,-58.261822
"6274108511","6274108511","JUAN VASQUEZ 613",-34.810728,-58.267837
"6274115276","6274115276","JUAN VASQUEZ 926",-34.810640,-58.265382
"6490120209","6490120209","BAHÍA BLANCA 395",-34.808297,-58.435388
"628114757","628114757","AMELIA LE MEHAUT DE ANGONELLI 1602-1700",-34.807770,-58.383445
"691134961","691134961","CALLE 133",-34.806482,-58.184697
"691106059","691106059","CALLE 137 A 5399-5499",-34.805867,-58.181088
"691131715","691131715","AVENIDA ANTÁRTIDA ARGENTINA 616",-34.803025,-58.221298
"691101395","691101395","CAMINO GENERAL BELGRANO 4299",-34.802857,-58.221805
"6260105826","6260105826","SAN MARTÍN 1471",-34.802097,-58.453250
"6260121127","6260121127","NUESTRAS MALVINAS 1300-1348",-34.801555,-58.479692
"628126974","628126974","AV. SAN MARTÍN 2329-2399",-34.798652,-58.369547
"698125153","698125153","AVENIDA MONTEVIDEO_CALLE 19",-34.872582,-57.873620
"6260119519","6260119519","MARIANO CASTEX 1402-1420",-34.861127,-58.502470
"6427131258","6427131258","BRIG. GRAL. JUAN MANUEL DE ROSAS 24049-24199",-34.855707,-58.659032
"691123613","691123613","CAMINO PARQUE CENTENARIO_ACCESO A PARQUE ECAS",-34.845133,-58.116667
"6427117093","6427117093","HUGO WAST 800-898",-34.842847,-58.644122
"628131460","628131460","25 DE MAYO 700-798",-34.840833,-58.368010
"691130958","691130958","CALLE 413 75",-34.839667,-58.188292
"691105774","691105774","DOMINGO SIMONUTTI 1475",-34.835063,-58.183550
"691103973","691103973","CALLE 413 441-499",-34.834592,-58.185897
"6434125324","6434125324","PERGAMINO 2885",-34.723890,-58.385265
"6434119458","6434119458","CALLE MARCO AVELLANEDA 1371",-34.723532,-58.408662
"6658127774","6658127774","REPUBLIC DE LÍBANO 1238-1298",-34.723103,-58.278772
"6658114046","6658114046","CERRITO 1695",-34.722757,-58.306763
"6658110147","6658110147","BRANDSEN 650-698",-34.722345,-58.245202
"628113457","628113457","AVENIDA TOMÁS ESPORA 599-679",-34.797062,-58.388772
"628117743","628117743","RODOLFO COLLET 544",-34.796628,-58.339210
"628100529","628100529","CERVANTES SAAVEDRA 3229-3299",-34.796265,-58.356923
"628108545","628108545","AVENIDA LACAZE 6099-6199",-34.794812,-58.317620
"628128611","628128611","LEROUX 2242",-34.794607,-58.346125
"691118535","691118535","CAMINO GENERAL BELGRANO 2389",-34.792202,-58.241505
"691111222","691111222","AVENIDA DOCTOR LUIS AGOTE 902-1000",-34.791930,-58.205420
"6274132432","6274132432","BOMBERO VOLUNTARIO V. SENZABELLO 1306",-34.791578,-58.265257
"628105825","628105825","AVENIDA LACAZE 6565-6599",-34.791485,-58.311553
"691128533","691128533","CALLE 55 5580-5598",-34.791245,-58.164033
"691109633","691109633","AVENIDA RANELAGH_CALLE 45",-34.790730,-58.180218
"6274133646","6274133646","BOMBERO VOLUNTARIO V. SENZABELLO 1644",-34.790435,-58.263085
"628124861","628124861","LEROUX 1599-1699",-34.790055,-58.349607
"628112566","628112566","RAWSON 900-998",-34.789137,-58.326897
"691131019","691131019","CALLE 21 929-989",-34.788740,-58.242530
"691125150","691125150","DIAGONAL LISANDRO DE LA TORRE 5475",-34.788628,-58.159917
"6658119284","6658119284","AVENIDA JUAN DOMINGO PERÓN 5258",-34.787717,-58.313888
"628126261","628126261","AV. REPUBLIC ARGENTINA 1020-1098",-34.787533,-58.362413
"628127704","628127704","JORGE SANTIAGO BYNNON 2799-2899",-34.787282,-58.370227
"6274122527","6274122527","AVENIDA GENERAL JOSÉ DE SAN MARTÍN 1200-1246",-34.787202,-58.278720
"6490110707","6490110707","AVENIDA HIPÓLITO YRIGOYEN 10902-10976",-34.784903,-58.407440
"691112846","691112846","CALLE 137 3199-3299",-34.784410,-58.208057
"628125380","628125380","GENERAL JOSÉ J. ARIAS 400-498",-34.783422,-58.371128
"6658115887","6658115887","AVENIDA JUAN DOMINGO PERÓN 4500-4598",-34.783340,-58.317027
"628128354","628128354","PINO 1-99",-34.812617,-58.400500
"6260117368","6260117368","GENERAL ALVEAR 99-199",-34.812085,-58.460962
"6274101565","6274101565","JUAN VASQUEZ 801-899",-34.810652,-58.265707
"628111718","628111718","AMELIA LE MEHAUT DE ANGONELLI 1795",-34.808908,-58.382700
"6260111976","6260111976","BOULEVARD BUENOS AIRES 1610",-34.808747,-58.445897
"628122764","628122764","ADOLFO ALSINA 3429",-34.808258,-58.352757
"628129643","628129643","MARTÍN RODRÍGUEZ 1055",-34.807830,-58.395807
"628114758","628114758","AMELIA LE MEHAUT DE ANGONELLI 1602-1700",-34.807768,-58.383445
"6490116455","6490116455","BAHÍA BLANCA 299",-34.807498,-58.436015
"6274127531","6274127531","DOCTOR SALVADOR SALLARES 523-599",-34.807432,-58.268605
"628107606","628107606","AVENIDA TOMÁS ESPORA 1300-1348",-34.806967,-58.388685
"628108762","628108762","AVENIDA LACAZE 4781-4799",-34.802765,-58.332242
"6490129273","6490129273","DOYHENARD 402-500",-34.801793,-58.423363
"6490120706","6490120706","DOYHENARD 302-400",-34.801272,-58.423755
"628109370","628109370","MONTE COMAN 1347",-34.800210,-58.338582
"6490130067","6490130067","DOYHENARD 202-300",-34.800162,-58.424593
"691105527","691105527","CALLE 55 4802-4830",-34.798805,-58.172865
"691104704","691104704","CAMINO GENERAL BELGRANO 3500-3548",-34.798297,-58.230138
"6441115549","6441115549","CALLE 489_CALLE 15",-34.876557,-58.029657
"698117251","698117251","AVENIDA MONTEVIDEO_CALLE 23",-34.874118,-57.868210
"698116252","698116252","AVENIDA MONTEVIDEO_CALLE 23",-34.873917,-57.868933
"628107070","628107070","AVENIDA HIPÓLITO YRIGOYEN 19201-19299",-34.871843,-58.389580
"6274130519","6274130519","CALLE 1148 2765",-34.869000,-58.188917
"6441122957","6441122957","CALLE 13_CALLE 478",-34.868692,-58.034847
"6441132641","6441132641","CAMINO PARQUE CENTENARIO_CALLE 461 E",-34.862877,-58.053410
"6270129034","6270129034","CONQUISTA DE DESIERTO 378",-34.854565,-58.522782
"6441110608","6441110608","CALLE 419_CALLE 7",-34.854342,-58.080345
"6270115019","6270115019","CONQUISTA DE DESIERTO 115",-34.852488,-58.520337
"6441116369","6441116369","CAMINO PARQUE CENTENARIO_CALLE 56",-34.849888,-58.093590
"6270104844","6270104844","LUCIO SALVADORES 350-398",-34.848783,-58.514555
"6270119279","6270119279","LUCIO SALVADORES 550-598",-34.847710,-58.512330
"6245122402","6245122402","CAMINO COSTANERO ALMIRANTE BROWN_ABSA",-34.845778,-57.930802
"691115262","691115262","AVENIDA EVA PERÓN 1524",-34.796067,-58.229930
"628130829","628130829","DOMINGO SALABERRY 355",-34.795187,-58.330732
"628107710","628107710","JORGE SANTIAGO BYNNON 1765",-34.795020,-58.384172
"6658120792","6658120792","AV. DONATO ÁLVAREZ 6300-6348",-34.794837,-58.308737
"628134848","628134848","MARGARITA 201-249",-34.793355,-58.316125
"628118776","628118776","20 DE SEPTIEMBRE 1349-1399",-34.792767,-58.361472
"691114879","691114879","CAMINO GENERAL BELGRANO 2456",-34.792652,-58.240650
"6490100512","6490100512","ANTÁRTIDA ARGENTINA 301-399",-34.791237,-58.411915
"6490133949","6490133949","LA HUELLA 2802-2900",-34.790875,-58.421668
"628134841","628134841","LILA 6399-6499",-34.787182,-58.316712
"691122793","691122793","CALLE 158 5000-5048",-34.787062,-58.166772
"6274126694","6274126694","PEDRO MORAN 601-699",-34.786938,-58.290212
"6490130677","6490130677","NESTOR DE LA PEÑA 700-798",-34.786862,-58.430873
"628106967","628106967","AV. REPUBLIC ARGENTINA 950-998",-34.786490,-58.362412
"691130473","691130473","CALLE 21 1452-1500",-34.786302,-58.237862
"6274131173","6274131173","DARREGUEIRA 308-390",-34.785908,-58.295432
"691129477","691129477","AVENIDA RANELAGH_CALLE 370",-34.784875,-58.187790
"691113280","691113280","CALLE 158 4602-4700",-34.784697,-58.171547
"628111141","628111141","FALUCHO 5807",-34.784167,-58.324197
"691132240","691132240","AVENIDA MITRE 4904",-34.784077,-58.166768
"6274122898","6274122898","AVENIDA HIPÓLITO YRIGOYEN 1642",-34.783687,-58.267885
"628113908","628113908","GENERAL MIGUEL SOLER 400-492",-34.812202,-58.403888
"628106129","628106129","ADOLFO ALSINA 2973",-34.811998,-58.359607
"628115674","628115674","AVENIDA HIPÓLITO YRIGOYEN 13400-13478",-34.811142,-58.400165
"6260109533","6260109533","25 DE MAYO 1-25",-34.809892,-58.473318
"628122192","628122192","HIPÓLITO BOUCHARD 202-300",-34.809258,-58.397650
"628103726","628103726","COMBATIENTES DE MALVINAS 201-299",-34.808782,-58.406203
"691100390","691100390","CALLE 131 5321",-34.808192,-58.185648
"628107607","628107607","AVENIDA TOMÁS ESPORA 1300-1348",-34.806968,-58.388685
"6490118171","6490118171","BV. POLONIA 687-699",-34.806812,-58.426725
"628101811","628101811","AVENIDA HIPÓLITO YRIGOYEN 12920",-34.805277,-58.404597
"6274119495","6274119495","AVENIDA GENERAL JOSÉ DE SAN MARTÍN 2700-2798",-34.804193,-58.278175
"6490111491","6490111491","GERMAN KURTH",-34.804053,-58.426530
"6274115909","6274115909","JOSÉ IGNACIO GORRITI 3307",-34.799237,-58.258862
"628101359","628101359","AVENIDA BILLINGHURST 545",-34.799050,-58.339562
"628130944","628130944","INTENDENTE DOCTOR MARTÍN GONZÁLEZ 800-898",-34.798408,-58.396110
"6490103988","6490103988","COLECTORA CAMINO DE CINTURA",-34.798353,-58.443585
"628100065","628100065","AVENIDA TOMÁS ESPORA 700-898",-34.798165,-58.388747
"628123770","628123770","DOMINGO SALABERRY 999-1099",-34.798027,-58.336440
"628119568","628119568","DIAGONAL ALMIRANTE BROWN 724-900",-34.797528,-58.388167
"628110538","628110538","AVENIDA TOMÁS ESPORA 689-699",-34.797523,-58.388755
"6490103892","6490103892","ANTÁRTIDA ARGENTINA 1533",-34.797302,-58.423660
"6441115125","6441115125","CAMINO GENERAL BELGRANO_CALLE 452",-34.876458,-58.075675
"6427127470","6427127470","BRIG. GRAL. JUAN MANUEL DE ROSAS 26771-26801",-34.876122,-58.676270
"6245108029","6245108029","OLEGARIO ANDRADE_HERMINIO MASANTONIO",-34.875858,-57.910667
"6274120337","6274120337","CALLE 1148 2590",-34.871163,-58.191465
"6441106195","6441106195","CALLE 11_CALLE 14",-34.868065,-58.048142
"628102873","628102873","CARLOS DIHEL 2126",-34.865278,-58.393755
"628101833","628101833","DOCTOR JOSÉ ALBERTO KELLERTAS 18199-18299",-34.859853,-58.391127
"6441110855","6441110855","CAMINO PARQUE CENTENARIO Y PLAZA VILLA ELISA",-34.851142,-58.088300
"628130150","628130150","JUAN SARCIONE 1-98",-34.841872,-58.379742
"6260109690","6260109690","EL DESVIO 299-311",-34.838670,-58.502370
"6434129916","6434129916","SEBASTIÁN GABOTO 3712",-34.723497,-58.409032
"635104913","635104913","CAMINO GENERAL BELGRANO 4802-4900",-34.722343,-58.338725
"6658109098","6658109098","BRANDSEN 860-888",-34.720362,-58.241312
"6658111266","6658111266","AVENIDA ISIDORO IRIARTE 900-948",-34.720208,-58.239940
"628130798","628130798","DOMINGO SALABERRY 400-496",-34.795378,-58.331112
"6274106109","6274106109","EL SALTO 1414",-34.793580,-58.262457
"628110661","628110661","MITRE 1901",-34.792557,-58.383070
"628123630","628123630","FALUCHO 4370",-34.791747,-58.338910
"6490116531","6490116531","GENERAL EUSTAQUIO FRÍAS 2901-2999",-34.790373,-58.416620
"6658115962","6658115962","CALLE 898 5834",-34.789957,-58.308570
"6490123437","6490123437","LA HUELLA 2701-2799",-34.789877,-58.422422
"6490133331","6490133331","ARMONÍA 99-199",-34.789563,-58.424547
"628112319","628112319","AVENIDA SAN MARTÍN 3844",-34.788228,-58.350882
"628124251","628124251","ANEMONA 6557",-34.787532,-58.314292
"6490106283","6490106283","RUTA PROVINCIAL 210 4385",-34.787067,-58.389140
"6490123491","6490123491","JOSÉ GARIBALDI 2802-2900",-34.786633,-58.436375
"6490120035","6490120035","AVENIDA ALMIRANTE BROWN 4300-4498",-34.785690,-58.389245
"628110738","628110738","JORGE SANTIAGO BYNNON 3122",-34.785632,-58.367225
"6525100029","6525100029","ROQUE SÁENZ PEÑA Y AVENIDA DOCTOR MARCOS PAZ",-34.785525,-58.835002
"628131299","628131299","GENERAL JOSÉ J. ARIAS 399-499",-34.784027,-58.370645
"6260129145","6260129145","AVENIDA LUIS VERNET 3500-3598",-34.783652,-58.489042
"6490129886","6490129886","PROFESOR MARINO 610",-34.783197,-58.404545
"6270121529","6270121529","ACCESO A AEROPUERTO",-34.811172,-58.541242
"628104696","628104696","AVENIDA LACAZE 3569-3699",-34.810610,-58.346000
"6427121221","6427121221","CAMPANA 7405-7449",-34.809107,-58.631232
"6274105704","6274105704","AVENIDA CALCHAQUÍ 4300-4398",-34.809047,-58.232225
"6490131682","6490131682","DOCTOR JORGE MELBER 2001-2099",-34.807793,-58.424208
"6260107681","6260107681","AVENIDA V. FAIR 399-583",-34.807280,-58.485460
"6490126895","6490126895","INCA 2502-2600",-34.806888,-58.430470
"6274126308","6274126308","SAN JUAN 1294",-34.805998,-58.262970
"6274118912","6274118912","AVENIDA TENIENTE GENERAL JUAN DOMINGO PERÓN 1200-!",-34.804402,-58.246310
"6490106021","6490106021","AVENIDA HIPÓLITO YRIGOYEN 12874",-34.804280,-58.405447
"628122512","628122512","JUAN JOSÉ PASO 578",-34.803810,-58.339777
"628106871","628106871","RUTA PROVINCIAL 210 1088",-34.803650,-58.388727
"6274114192","6274114192","ARISTÓBULO DEL VALLE 1924",-34.803388,-58.259257
"6260105556","6260105556","SAN MARTÍN 1410",-34.802593,-58.454182
"691133371","691133371","CAMINO GENERAL BELGRANO 3878",-34.800112,-58.226800
"6260113067","6260113067","SAN MARTÍN 1900-1998",-34.799200,-58.447760
"628114684","628114684","JULIÁN SEGUNDO DE AGÜERO 2099-2199",-34.798903,-58.355810
"6274123348","6274123348","AV. DONATO ÁLVAREZ 585",-34.798622,-58.305988
"698125530","698125530","CALLE 30_AVENIDA MONTEVIDEO",-34.876307,-57.859610
"6441122316","6441122316","CAMINO GENERAL BELGRANO_CALLE 448",-34.875415,-58.080037
"628117959","628117959","AVENIDA HIPÓLITO YRIGOYEN 19399-19499",-34.873997,-58.389658
"6274122468","6274122468","AVENIDA EVA PERÓN",-34.869377,-58.275215
"628122384","628122384","CARLOS DIHEL 2435-2499",-34.867790,-58.398742
"6274104187","6274104187","AVENIDA EVA PERÓN",-34.866963,-58.275705
"6441110154","6441110154","CAMINO PARQUE CENTENARIO_CALLE 461 E",-34.862780,-58.053385
"6427133816","6427133816","AVENIDA MONTECARLO 750-786",-34.843617,-58.643958
"691121177","691121177","CAMINO GENERAL BELGRANO_CALLE 706",-34.841635,-58.158167
"6427106063","6427106063","HUGO WAST 649-699",-34.840870,-58.644885
"628112827","628112827","HUGO DE CARRIL 29",-34.837290,-58.382612
"691109734","691109734","CALLE 455 1500-1598",-34.835227,-58.183053
"6658125642","6658125642","PRIMERA JUNTA 922",-34.725435,-58.236628
"6434127437","6434127437","AV. 9 DE JULIO 3101-3199",-34.723315,-58.368768
"6490103527","6490103527","CLAUDIO DE ALAS 1902-2000",-34.723135,-58.460622
"6434109507","6434109507","DARDO ROCHA 4101-4199",-34.723075,-58.416192
"6658103432","6658103432","AVENIDA HIPÓLITO YRIGOYEN 575-599",-34.722835,-58.260683
"6658126595","6658126595","RODOLFO LÓPEZ 201",-34.721675,-58.266587
"6490126890","6490126890","VIRGEN DE ITATÍ 502-600",-34.720463,-58.431328
"6434132754","6434132754","CENTENARIO URUGUAYO 1301-1399",-34.720422,-58.360485
"6490110085","6490110085","CAMINO DE LA RIVERA SUD 2662",-34.720317,-58.475832
"6274125665","6274125665","SUBTENIENTE JUAN OMAR ABRAHAM 1920",-34.797277,-58.254475
"6260132780","6260132780","DE LA TRADICION 520",-34.795522,-58.446743
"6274118651","6274118651","AVENIDA GENERAL JOSÉ DE SAN MARTÍN 1699-1799",-34.793937,-58.279072
"628129701","628129701","RAWSON 601-699",-34.792833,-58.324118
"628134970","628134970","LEROUX 1960",-34.791912,-58.348162
"628110679","628110679","FALUCHO 4249-4299",-34.791872,-58.339153
"691122251","691122251","CALLE 361 A 1002-1100",-34.791490,-58.200183
"6658114829","6658114829","AVENIDA GOBERNADOR MONTEVERDE 2700-2799",-34.789328,-58.308295
"691106211","691106211","AVENIDA EVA PERÓN 3001-3089",-34.788810,-58.215700
"6658115299","6658115299","AVENIDA GOBERNADOR MONTEVERDE 2467",-34.788550,-58.306793
"6490130646","6490130646","LUZURIAGA 699-799",-34.788487,-58.435095
"6658101776","6658101776","AVENIDA JUAN DOMINGO PERÓN 5000-5098",-34.786478,-58.314782
"6274117634","6274117634","DARREGUEIRA 307-389",-34.786235,-58.295185
"628127256","628127256","FALUCHO 5600-5698",-34.785730,-58.327237
"6658130070","6658130070","AVENIDA GOBERNADOR MONTEVERDE 2197-2199",-34.785208,-58.301740
"6525108263","6525108263","SARMIENTO Y AGUERO",-34.784507,-58.840080
"691111870","691111870","AVENIDA RIGOLLEAU 714",-34.783965,-58.250963
"6490124173","6490124173","PICHINCHA 1113-1121",-34.783638,-58.406592
"6490128911","6490128911","WILDE 1102-1200",-34.812770,-58.429783
"6427132308","6427132308","CAMPANA 7700-7798",-34.811227,-58.628635
"628100665","628100665","AVENIDA TOMÁS ESPORA 1602-1700",-34.811208,-58.388757
"6274104161","6274104161","JUAN VASQUEZ 1101-1199",-34.810567,-58.263273
"628113796","628113796","AVENIDA TOMÁS ESPORA 1402-1500",-34.808805,-58.388665
"628110418","628110418","AVENIDA LACAZE 4024",-34.808020,-58.341920
"6490127498","6490127498","GERMAN KURTH",-34.803457,-58.425340
"628122269","628122269","JUAN JOSÉ PASO 599-699",-34.802932,-58.340480
"691114082","691114082","CAMINO GENERAL BELGRANO 4199-4299",-34.802310,-58.222745
"628134478","628134478","JUAN B. AZOPARDO 2800-2898",-34.801797,-58.360805
"6490121864","6490121864","DOCTOR JORGE MELBER 102-176",-34.800787,-58.410093
"628123532","628123532","AVENIDA 17 DE OCTUBRE 700-798",-34.800732,-58.337615
"691128089","691128089","CALLE 55 4577",-34.800560,-58.174982
"6274130265","6274130265","FLORENTINO AMEGHINO 3534",-34.799888,-58.256947
"6427116676","6427116676","ARRECIFES 1101-1299",-34.799823,-58.623935
"698125490","698125490","CALLE 4_CALLE 158",-34.875982,-57.896007
"6441112695","6441112695","CAMINO PARQUE CENTENARIO_CALLE 495",-34.875885,-58.020500
"698116230","698116230","AVENIDA MONTEVIDEO_CALLE 28",-34.875807,-57.862000
"698110852","698110852","AVENIDA N. H. BEGUIN_CALLE 31",-34.874632,-57.856837
"6441111414","6441111414","CAMINO PARQUE CENTENARIO_CALLE 491",-34.874315,-58.024392
"698106567","698106567","AVENIDA MONTEVIDEO_CALLE 15",-34.871195,-57.878465
"6441102946","6441102946","CALLE 419_CAMINO GENERAL BELGRANO",-34.869550,-58.097023
"6441120578","6441120578","CAMINO PARQUE CENTENARIO_CALLE 476",-34.867892,-58.038730
"6270113884","6270113884","AVENIDA PATRICIOS 500-580",-34.863457,-58.534277
"628128634","628128634","PRES. SARMIENTO 702-800",-34.855765,-58.381192
"6441134174","6441134174","CAMINO PARQUE CENTENARIO_CALLE 422 BIS",-34.855240,-58.075460
"628112187","628112187","PRES. SARMIENTO 510",-34.854020,-58.382455
"6260133421","6260133421","MARIANO CASTEX 202-300",-34.848187,-58.505162
"6260135174","6260135174","PEHUAJÓ 23",-34.844740,-58.446440
"691115432","691115432","CAMINO PARQUE CENTENARIO Y CAMINO",-34.844453,-58.139128
"6427118273","6427118273","AVENIDA MONTECARLO 658-698",-34.843080,-58.644423
"6427121723","6427121723","AVENIDA MONTECARLO 658-698",-34.843005,-58.644532
"6260118209","6260118209","PEHUAJÓ 400-428",-34.842282,-58.441445
"6260112720","6260112720","PEHUAJÓ 409-499",-34.841867,-58.440630
"6260117453","6260117453","AVENIDA GENERAL JUAN D. PERÓN",-34.841485,-58.506238
"628113169","628113169","HUGO DE CARRIL 221",-34.836205,-58.380428
"6245121539","6245121539","CAMINO COSTANERO ALMIRANTE BROWN_CALLE 18",-34.835450,-57.945942
"628117915","628117915","HUGO DE CARRIL 427",-34.834218,-58.376832
"6882115469","6882115469","COLECTORA NORTE Y COARASA",-34.098813,-59.155845
"628103084","628103084","INT. DR. MARTÍN GONZÁLEZ 1000-1198",-34.797187,-58.394010
"628109320","628109320","RODOLFO COLLET 200",-34.796137,-58.341572
"628117401","628117401","SAN LUIS 2300-2398",-34.794177,-58.342853
"6525129384","6525129384","AVENIDA DOCTOR MARCOS PAZ Y N. BASTANCHURI",-34.793600,-58.844070
"6490127790","6490127790","GENERAL EUSTAQUIO FRÍAS 3101-3199",-34.792427,-58.414985
"628105824","628105824","AVENIDA LACAZE 6565-6599",-34.791490,-58.311550
"691128558","691128558","AVENIDA DARDO ROCHA 2900-3028",-34.790762,-58.226683
"691116471","691116471","AUTOPISTA BUENOS AIRES - MAR DE PLATA",-34.790513,-58.157045
"6658109912","6658109912","AVENIDA JUAN DOMINGO PERÓN 5700-5742",-34.790480,-58.311905
"628134429","628134429","ANEMONA 6500-6598",-34.788160,-58.315557
"628123447","628123447","JORGE SANTIAGO BYNNON 2900-2998",-34.787083,-58.369865
"6490106282","6490106282","RUTA PROVINCIAL 210 4385",-34.787067,-58.389147
"691127995","691127995","CALLE 158 4953",-34.786813,-58.167402
"6490112184","6490112184","AVENIDA HIPÓLITO YRIGOYEN 10901-10999",-34.785720,-58.407555
"6274120883","6274120883","PEDRO MORAN 402-500",-34.784988,-58.291730
"628116431","628116431","FALUCHO 5755-5799",-34.784952,-58.325722
"691127720","691127720","CALLE 137 256",-34.784838,-58.207803
"691111778","691111778","AVENIDA RIGOLLEAU 325-499",-34.784810,-58.252565
"691127938","691127938","AVENIDA VALENTÍN VERGARA 2400-2448",-34.783287,-58.222942
"6490107642","6490107642","ALMIRANTE SEGUÍ 1081",-34.810877,-58.417665
"6274118770","6274118770","DOCTOR ADOLFO GRISTEIN 3340",-34.809092,-58.257652
"6490125668","6490125668","INCA 2801-2899",-34.809030,-58.434670
"628122918","628122918","GARIBALDI 299-399",-34.808238,-58.343952
"691106957","691106957","CAMINO GENERAL BELGRANO 5020-5198",-34.807787,-58.212615
"6274100291","6274100291","DOCTOR SALVADOR SALLARES 1550",-34.807600,-58.261745
"6260107682","6260107682","AVENIDA V. FAIR 399-583",-34.807282,-58.485460
"691134927","691134927","CALLE 134 A",-34.806618,-58.183700
"6490121568","6490121568","TÚPAC AMARU 102-200",-34.802912,-58.431230
"628134802","628134802","AVENIDA SAN MARTÍN 1799-1899",-34.802332,-58.376202
"6490115939","6490115939","ANTÁRTIDA ARGENTINA 2280",-34.801218,-58.431278
"6441130978","6441130978","CALLE 503_AVENIDA 7",-34.876295,-58.001917
"698120300","698120300","AVENIDA MONTEVIDEO_CALLE 17",-34.872120,-57.875332
"6441105083","6441105083","CAMINO GENERAL BELGRANO_CALLE 422",-34.871257,-58.092977
"6441131461","6441131461","CALLE 11_CALLE 14 A",-34.868972,-58.048765
"6441116453","6441116453","CAMINO PARQUE CENTENARIO_CALLE 476",-34.867787,-58.038678
"6441133856","6441133856","CALLE 12_CALLE 472",-34.864532,-58.042115
"6270101411","6270101411","AVENIDA PATRICIOS 797",-34.861160,-58.531357
"628113427","628113427","PRES. SARMIENTO 401-499",-34.853657,-58.382717
"6441111431","6441111431","CAMINO PARQUE CENTENARIO_CALLE 43",-34.853257,-58.080368
"6441112865","6441112865","CALLE 6_CALLE 43",-34.852312,-58.079363
"628102361","628102361","AVENIDA BERLIN 499-599",-34.850067,-58.382282
"628113909","628113909","AVENIDA BERLIN 299-399",-34.848982,-58.380095
"6441132955","6441132955","CAMINO PARQUE CENTENARIO_CALLE 403 - ARCO V. ELISA",-34.847733,-58.098823
"6260134295","6260134295","LEANDRO N. ALEM 2599-2699",-34.838700,-58.451202
"691105773","691105773","DOMINGO SIMONUTTI 1475",-34.835067,-58.183537
"628122675","628122675","AVENIDA HIPÓLITO YRIGOYEN 15500-15540",-34.834058,-58.400630
"628117281","628117281","AVENIDA MONTEVERDE 3603-3879",-34.833982,-58.409695
"6434122616","6434122616","GRAL. GUIDO 4001-4099",-34.725502,-58.355550
"6658114061","6658114061","LEANDRO N. ALEM 35",-34.724545,-58.260007
"6434112297","6434112297","CENTENARIO URUGUAYO 1702-1800",-34.722960,-58.363413
"635100818","635100818","MANUEL RAPOSO 6251-6299",-34.722665,-58.334982
"6434121485","6434121485","SEBASTIÁN GABOTO 3501-3599",-34.722217,-58.406438
"6490107457","6490107457","PLUMERILLO 695",-34.722065,-58.428155
"6427119372","6427119372","MARTÍN CORONADO 1-96",-34.721995,-58.568827
"6434117233","6434117233","VILLA DE LUJÁN 2401-2499",-34.720867,-58.380365
"635108154","635108154","CORONEL LYNCH 652-700",-34.715390,-58.321062
"6658106766","6658106766","AVENIDA OTAMENDI 1000-1048",-34.714042,-58.242860
"6434113230","6434113230","MARGARITA WEILD 1801-1899",-34.713538,-58.384307
"635134722","635134722","CANGALLO 5518",-34.713295,-58.340785
"6427122516","6427122516","JOSÉ BERNALDES POLLEDO 2901-2949",-34.712622,-58.628328
"635126663","635126663","CORONEL CASACUBERTA 5655",-34.712122,-58.337567
"6490105186","6490105186","PRESIDENTE JUAN DOMINGO PERÓN 5116",-34.712110,-58.453815
"6658100096","6658100096","PILCOMAYO",-34.711492,-58.309720
"6658133532","6658133532","AV. CERVANTES 560-598",-34.710622,-58.223110
"635117755","635117755","AVENIDA CRISÓLOGO LARRALDE 5953",-34.710150,-58.329870
"6434109126","6434109126","HERMANOS ROS 3316",-34.709463,-58.410220
"6434107929","6434107929","CARLOS GARDEL 301-349",-34.708855,-58.396957
"6658131556","6658131556","CERRITO 49-99",-34.708223,-58.289690
"6658123605","6658123605","CAMINO GENERAL BELGRANO 4200-4298",-34.769730,-58.283000
"691109223","691109223","AVENIDA RIGOLLEAU 3444",-34.769198,-58.223317
"628120644","628120644","VIRREY VÉRTIZ 4600-4698",-34.767657,-58.355725
"628102169","628102169","SALTA 600-698",-34.766740,-58.357500
"6658108938","6658108938","ABRAHAM MENDELEVICH 1499-1599",-34.766675,-58.301907
"6427111554","6427111554","CORONEL CONDE 4202-4300",-34.766597,-58.641782
"6490129586","6490129586","DE LOS EUCALIPTUS 1599-1699",-34.765660,-58.359552
"6427101285","6427101285","BRIGADIER GENERAL JUAN MANUEL DE ROSAS 14340-14352",-34.764510,-58.617125
"6490103501","6490103501","CAMINO PRESIDENTE JUAN DOMINGO PERÓN 200-272",-34.763950,-58.432225
"628127064","628127064","GABOTO 4999-5099",-34.763853,-58.352690
"6427126152","6427126152","COBO 5952-5960",-34.763620,-58.608677
"6539119942","6539119942","DE LA UNIÓN 4399-4599",-34.763553,-58.718747
"6427128234","6427128234","SAVIGNY 7700-7748",-34.762628,-58.579027
"6658125586","6658125586","ABRAHAM MENDELEVICH 491",-34.762622,-58.294520
"6427113889","6427113889","PUELCHES 5628-5698",-34.762245,-58.610738
"628117581","628117581","AV. AMENEDO 6505",-34.761840,-58.332825
"6427105349","6427105349","SENGUEL 6350-6398",-34.761237,-58.624633
"6658103370","6658103370","AV. CALCHAQUÍ 3999-4099",-34.760863,-58.277890
"6490130320","6490130320","OLMOS 501-599",-34.760617,-58.448570
"6434100561","6434100561","GOBERNADOR GENERAL JUAN JOSÉ VIAMONTE 515-599",-34.700997,-58.402112
"6539102952","6539102952","JUFRÉ 1700-1798",-34.699870,-58.678957
"6539101093","6539101093","AVENIDA BELLA VISTA 2930-2998",-34.699488,-58.655832
"6427107913","6427107913","GUILLERMO MARCONI 1332",-34.698547,-58.612225
"6427127855","6427127855","GENERAL CAPDEVILA 1001-1099",-34.698387,-58.626293
"6427102936","6427102936","MARTÍN UGARTE 1029",-34.698293,-58.487737
"6434125912","6434125912","GOBERNADOR UDAONDO 2001-2045",-34.698260,-58.399647
"6427119521","6427119521","AVENIDA BOULOGNE SUR MER 1314",-34.697273,-58.507740
"6539121392","6539121392","JUFRÉ 1200-1290",-34.696907,-58.675697
"6427105436","6427105436","GUILLERMO MARCONI 1065-1099",-34.696820,-58.614525
"6427100288","6427100288","METROBUS HOSPITAL PARAOISSIEN",-34.696727,-58.576172
"6539130743","6539130743","25 DE MAYO Y BELEN",-34.696710,-58.737907
"6539120438","6539120438","PASCO 3800-3898",-34.695423,-58.731662
"6427100145","6427100145","AVENIDA INTENDENTE ESTEBAN CROVARA 3520",-34.694905,-58.532922
"6568132498","6568132498","AVENIDA EVA PERÓN 4249",-34.694005,-58.637377
"6427121500","6427121500","CARLOS CASARES 29",-34.693995,-58.630580
"6658121075","6658121075","FELIPE AMOEDO 1217-1299",-34.736527,-58.269082
"6490106312","6490106312","HOMERO 3101-3199",-34.736470,-58.461125
"6658117940","6658117940","AVENIDA MITRE 1510",-34.736258,-58.241242
"6434127028","6434127028","ALVAR NÚÑEZ 4001-4099",-34.735855,-58.366568
"6427100386","6427100386","METROBUS LURO",-34.735702,-58.603675
"6260100308","6260100308","CAMINO DE CINTURA 8500-8598",-34.735552,-58.499850
"6490103146","6490103146","AVENIDA BRIGADIER GENERAL JUAN MANUEL DE ROSAS 11!",-34.734372,-58.477372
"6427100522","6427100522","AVENIDA GENERAL ROJO",-34.733695,-58.553162
"6658104566","6658104566","ANDRÉS BARANDA 1981",-34.733543,-58.263217
"6260108469","6260108469","AVENIDA JORGE NEWBERY",-34.796480,-58.514600
"628100531","628100531","CERVANTES SAAVEDRA 3229-3299",-34.796222,-58.356860
"628113358","628113358","AVENIDA SAN MARTÍN 2936",-34.795347,-58.363567
"691100908","691100908","CAMINO GENERAL BELGRANO 2689",-34.794332,-58.237575
"6490104327","6490104327","ANTÁRTIDA ARGENTINA 902",-34.794097,-58.417332
"6260133794","6260133794","AVENIDA LUCIANO VALETTE 1527",-34.793810,-58.458977
"628105408","628105408","RAWSON 520-538",-34.793777,-58.323367
"6427121941","6427121941","AVENIDA JOSÉ EQUIZA 7115",-34.793588,-58.618020
"6490124416","6490124416","COLECTORA CAMINO DE CINTURA 30",-34.793315,-58.448145
"691109558","691109558","CALLE 55 5400-5462",-34.793173,-58.166037
"6490120514","6490120514","GENERAL EUSTAQUIO FRÍAS 3202-3300",-34.793025,-58.414497
"628114853","628114853","DOMINGO SALABERRY 5800-5890",-34.792407,-58.324177
"6658132072","6658132072","AV. DONATO ÁLVAREZ 5900-5998",-34.792210,-58.310660
"628122853","628122853","RAWSON 700-748",-34.792162,-58.324625
"628111708","628111708","COLÓN 3699-3799",-34.791667,-58.350198
"628109921","628109921","JORGE SANTIAGO BYNNON 2400-2498",-34.790715,-58.376472
"691106210","691106210","AVENIDA EVA PERÓN 3001-3089",-34.788812,-58.215700
"6427120248","6427120248","AVENIDA JOSÉ EQUIZA 6200-6248",-34.786355,-58.626913
"6490101758","6490101758","AVENIDA ALMIRANTE BROWN 4250-4298",-34.785147,-58.389288
"6658128942","6658128942","M. A. PASCUAL 2789",-34.784993,-58.315840
"628125550","628125550","CANALE 2977",-34.784358,-58.370725
"691133191","691133191","CALLE 137 3126",-34.783537,-58.208727
"628107333","628107333","AVENIDA EVA PERÓN 2349-2399",-34.812000,-58.334927
"6260104463","6260104463","BOULEVARD BUENOS AIRES 1200-1298",-34.810860,-58.449898
"6490116576","6490116576","DOYHENARD 1402-1500",-34.810808,-58.417940
"628116185","628116185","AMELIA LE MEHAUT DE ANGONELLI 1802-1900",-34.809303,-58.382437
"628120433","628120433","TOMÁS NOTHER 281",-34.805675,-58.399403
"628115463","628115463","ADOLFO ALSINA 3800-3898",-34.805598,-58.347740
"6260132043","6260132043","SAN MARTÍN 1048",-34.805117,-58.458957
"6490100363","6490100363","ANTÁRTIDA ARGENTINA 2702-2784",-34.803572,-58.436010
"628123618","628123618","DRUMOND 1316",-34.802370,-58.380692
"6274104471","6274104471","LOS ANGELES 2528",-34.801648,-58.242492
"628122915","628122915","NICOLÁS AVELLANEDA 600-698",-34.801302,-58.397795
"6274104721","6274104721","AVENIDA CALCHAQUÍ 2823-2883",-34.800090,-58.239237
"628114939","628114939","JULIÁN SEGUNDO DE AGÜERO 2100-2198",-34.798413,-58.356185
"628102291","628102291","RUTA PROVINCIAL 4 5708-5794",-34.797878,-58.323212
"628103750","628103750","ROTONDA REPÚBLICA DE LA INDIA 698",-34.797872,-58.335362
"628114719","628114719","AVENIDA LACAZE 5707-5795",-34.797483,-58.322515
"6270103101","6270103101","CONQUISTA DE DESIERTO 306",-34.851338,-58.518912
"6245126235","6245126235","AVENIDA ALMIRANTE BROWN_ACCESO FUERTE BARRAGÁN",-34.848320,-57.927648
"6260129135","6260129135","PARAGUAY",-34.841150,-58.505868
"6245118409","6245118409","AVENIDA ALMIRANTE BROWN_CALLE 14",-34.837422,-57.942025
"628103072","628103072","AVENIDA TOMÁS ESPORA 4320-4398",-34.836895,-58.383117
"691133170","691133170","CAMINO GENERAL BELGRANO_CALLE 423",-34.834517,-58.169615
"6658124045","6658124045","BRANDSEN 350-368",-34.725298,-58.250920
"6658110596","6658110596","AVENIDA HIPÓLITO YRIGOYEN 712",-34.725275,-58.258830
"6434130830","6434130830","GENERAL HORNOS 1602-1800",-34.724938,-58.419237
"6658128645","6658128645","AVENIDA VICENTE LÓPEZ 1100-1192",-34.724880,-58.264373
"6427100651","6427100651","METROBUS TRES CRUCES",-34.724672,-58.598662
"6427129689","6427129689","AVENIDA CRISTIANÍA 6339",-34.724248,-58.565828
"6658122653","6658122653","AVENIDA MOZART 1100-1124",-34.723120,-58.236762
"6434100686","6434100686","EVA PERÓN 3502-3600",-34.722790,-58.360862
"6658131008","6658131008","AVENIDA VICENTE LÓPEZ 757",-34.721415,-58.266945
"6427125886","6427125886","AVENIDA CAMINO DE CINTURA Y RUTA NACIONAL A002",-34.721250,-58.512342
"6658135143","6658135143","ALLISON BELL 808",-34.721060,-58.246410
"6427125450","6427125450","GUILLERMO MARCONI 4700-4798",-34.720582,-58.582913
"6490115184","6490115184","CAMINO DE LA RIVERA SUD 2662",-34.723297,-58.479017
"635133841","635133841","VENEZUELA 6687",-34.722440,-58.331702
"6658106151","6658106151","AVENIDA HIPÓLITO YRIGOYEN 500-524",-34.722220,-58.261140
"6434126771","6434126771","AV. 9 DE JULIO 2901-2999",-34.721788,-58.370900
"6658125588","6658125588","AVENIDA MOZART 1050-1074",-34.721767,-58.238212
"6658125507","6658125507","GENERAL SMITH 395",-34.721765,-58.297572
"6658107408","6658107408","AVENIDA MITRE 658",-34.721597,-58.253807
"6658105334","6658105334","AVENIDA HIPÓLITO YRIGOYEN 439",-34.721073,-58.262010
"6658100861","6658100861","AVENIDA VICENTE LÓPEZ 600-698",-34.720362,-58.267812
"6658111267","6658111267","AVENIDA ISIDORO IRIARTE 900-948",-34.720142,-58.239997
"6490122945","6490122945","RECONDO 2169",-34.719635,-58.460205
"6434122654","6434122654","AV. 9 DE JULIO 2702-2800",-34.719520,-58.374050
"6658102862","6658102862","CEVALLOS 784",-34.718885,-58.244618
"6658120353","6658120353","AVENIDA LOS QUILMES 835",-34.718680,-58.304125
"6658116402","6658116402","AVELLANEDA 800-848",-34.718102,-58.293670
"6434119239","6434119239","MONSEÑOR J. HLADNIK 4101-4199",-34.717218,-58.420333
"6427129416","6427129416","FELIPE LLAVALLOL 1299-1399",-34.715557,-58.598512
"6427118833","6427118833","ZEPPELIN 1-72",-34.714452,-58.579312
"635118085","635118085","CORONEL CASACUBERTA 5879",-34.713782,-58.335527
"6658109697","6658109697","ZAPIOLA 137",-34.713270,-58.277678
"6434117900","6434117900","AVENIDA GENERAL JOSÉ DE SAN MARTÍN 4330",-34.713047,-58.427142
"635107256","635107256","AV. CRISÓLOGO LARRALDE",-34.712350,-58.327165
"6490105187","6490105187","PRESIDENTE JUAN DOMINGO PERÓN 5116",-34.712115,-58.453820
"6490107600","6490107600","PRESIDENTE JUAN DOMINGO PERÓN 5099-5199",-34.711787,-58.453367
"6427121496","6427121496","JUAN DOMINGO PERÓN",-34.711598,-58.557045
"635120659","635120659","CANGALLO 5261",-34.711205,-58.343728
"6434123575","6434123575","MARGARITA WEILD 1401-1499",-34.710720,-58.388240
"635114506","635114506","CENTENARIO URUGUAYO 1897",-34.710612,-58.349128
"6427110098","6427110098","AVENIDA CAMINO DE CINTURA 141",-34.709628,-58.528807
"6427105916","6427105916","EL HORNERO 365-399",-34.708373,-58.533065
"6434100730","6434100730","CAMINO GENERAL BELGRANO 2962-3000",-34.708203,-58.355205
"6490115971","6490115971","VICENTE OLIDEN 899-999",-34.770798,-58.415005
"628127069","628127069","SANTA ANA 1823",-34.770438,-58.338042
"6490124519","6490124519","VICENTE OLIDEN 900-998",-34.770177,-58.413810
"6490116514","6490116514","IPARRAGUIRRE 2-100",-34.769933,-58.441882
"6490124391","6490124391","LITUANIA 2-100",-34.768472,-58.374922
"6490134764","6490134764","AVENIDA ALMIRANTE BROWN 2600-2678",-34.767005,-58.396622
"691116750","691116750","AVENIDA MITRE 2099",-34.764865,-58.198452
"6658106751","6658106751","CALLE 896 2100-2148",-34.763632,-58.324567
"6427115014","6427115014","BARRIENTOS 3700-3798",-34.763178,-58.643412
"6427114824","6427114824","SENGUEL 7000-7078",-34.762863,-58.633912
"6658105911","6658105911","AVENIDA LA PLATA 3896-3897",-34.762210,-58.252765
"6490132030","6490132030","ANATOLE FRANCE 590-600",-34.761517,-58.374270
"6490127098","6490127098","JULIO FONROUGE 601-699",-34.760812,-58.389112
"635116134","635116134","AVENIDA RAMÓN FRANCO 6399-6465",-34.699767,-58.307037
"6568104446","6568104446","AVENIDA EVA PERÓN 4649-4699",-34.699580,-58.639215
"6434108247","6434108247","AVENIDA TEODORO SÁNCHEZ DE BUSTAMANTE 1871-1899",-34.699482,-58.367332
"6427128718","6427128718","SOLDADO EDUARDO RUBEN MORENO 3626",-34.699220,-58.574347
"6658122164","6658122164","NUESTRA SEÑORA DE FATIMA 1399-1499",-34.699077,-58.280537
"6434125870","6434125870","GRAL. HORNOS 4602-4700",-34.699043,-58.439103
"6539112215","6539112215","AVENIDA BELLA VISTA 2780",-34.698888,-58.654225
"6434104751","6434104751","AVENIDA HIPÓLITO YRIGOYEN 3687",-34.698177,-58.392007
"6427104639","6427104639","SOLDADO JUAN RAVA 1202-1278",-34.698017,-58.485792
"6539122858","6539122858","AV. PATRICIOS 5199-5299",-34.697188,-58.696480
"6568128345","6568128345","AVENIDA CALLAO 2220-2272",-34.696623,-58.646832
"6539108371","6539108371","JUFRÉ 1100-1198",-34.696363,-58.675090
"635120241","635120241","SALTA 2001-2099",-34.696280,-58.368685
"6539117955","6539117955","AVENIDA DOCTOR RICARDO BALBÍN 2999-3099",-34.719010,-58.788728
"6434124638","6434124638","MARGARITA WEILD 2501-2599",-34.718487,-58.377407
"635126788","635126788","FABIAN ONZARI 1587",-34.718342,-58.334097
"6434106612","6434106612","SÁENZ PEÑA 747-799",-34.717975,-58.405765
"6434125224","6434125224","MINISTRO BRIN 3873",-34.717722,-58.397087
"6434131744","6434131744","TENIENTE J. A. RANGUGNI 3925",-34.716797,-58.403317
"6434113534","6434113534","CALLE MARCO AVELLANEDA 2306",-34.716027,-58.414292
"6490126671","6490126671","CAMINO DE LA RIVERA SUD 2626",-34.715925,-58.470825
"6434129288","6434129288","GENERAL HORNOS 2799",-34.715757,-58.426267
"6658134916","6658134916","CEVALLOS 450",-34.715442,-58.250040
"6427120915","6427120915","VENTURA YANZI 1999-2099",-34.715430,-58.610425
"6658120445","6658120445","MONTEVIDEO 981",-34.714938,-58.303145
"6490109225","6490109225","CLAUDIO DE ALAS 2602-2672",-34.714505,-58.467543
"6658105462","6658105462","AVENIDA HIPÓLITO YRIGOYEN 25-49",-34.714240,-58.267095
"6434105424","6434105424","AVENIDA GENERAL JOSÉ DE SAN MARTÍN 4178",-34.712223,-58.425570
"6434117434","6434117434","CALLE COLÓN 3001-3099",-34.711842,-58.424222
"6434132002","6434132002","CALLE MARCO AVELLANEDA 2859-2899",-34.711175,-58.418000
"6434114663","6434114663","GENERAL MADARIAGA 1401-1489",-34.710520,-58.376105
"6539124978","6539124978","AVENIDA DOMINGO SICA 2400-2598",-34.710343,-58.724410
"6427118052","6427118052","AVENIDA INTENDENTE ESTEBAN CROVARA 13",-34.710102,-58.555165
"6434123576","6434123576","JUAN DE ZAMORA 3731",-34.709985,-58.418902
"6490107900","6490107900","RECONDO 512",-34.709035,-58.440630
"6434116307","6434116307","JUNCAL 2001-2061",-34.708337,-58.374860
"6427113129","6427113129","JOSÉ ALICO 1300-1398",-34.708208,-58.520262
"6490114173","6490114173","AVENIDA HIPÓLITO YRIGOYEN 9828",-34.770222,-58.404632
"691113071","691113071","CALLE 24 5012-5098",-34.770060,-58.198282
"6490101837","6490101837","JOAQUÍN V. GONZÁLEZ 900-998",-34.767712,-58.378802
"6427132996","6427132996","ATALCO 5443-5499",-34.767513,-58.621662
"6658127778","6658127778","CALLE 896 2401-2499",-34.767043,-58.321862
"6490107084","6490107084","MONSEÑOR PIAGGIO 690",-34.766900,-58.410022
"6490121749","6490121749","CAMINO PUENTE DE LA NORIA 1-99",-34.766705,-58.435678
"6427131187","6427131187","ICALMA 101-199",-34.766273,-58.643665
"628114294","628114294","GABOTO 4700-4798",-34.765905,-58.356682
"6490115531","6490115531","GENERAL EUSTAQUIO FRÍAS 639",-34.765815,-58.423422
"6658123643","6658123643","AVENIDA GENERAL MOSCONI 3799-3899",-34.765715,-58.284770
"6658119884","6658119884","AVENIDA GENERAL MOSCONI 3800-3898",-34.765165,-58.285005
"6490110183","6490110183","AVENIDA EVA PERÓN 2302-2400",-34.764885,-58.368445
"6427129540","6427129540","COBO 6001-6099",-34.764622,-58.607452
"6658126591","6658126591","ABRAHAM MENDELEVICH 735",-34.763997,-58.297032
"691119464","691119464","DIAGONAL LISANDRO DE LA TORRE 1474",-34.763140,-58.210987
"6490125435","6490125435","JOSÉ EUSEBIO COLOMBRES 900-998",-34.762747,-58.411807
"6427106111","6427106111","SENGUEL 6799-6829",-34.762272,-58.630908
"628115450","628115450","VIRREY VÉRTIZ 5600-5698",-34.762062,-58.344715
"6490127035","6490127035","VIRGILIO 501-599",-34.761710,-58.439922
"6490116334","6490116334","GENERAL EUSTAQUIO FRÍAS 380",-34.761372,-58.422393
"6490118280","6490118280","IPARRAGUIRRE 865",-34.760880,-58.448727
"6490123022","6490123022","CERRITO 1451-1499",-34.760667,-58.385257
"628106975","628106975","SANTA ANA 507",-34.760180,-58.345975
"6490113100","6490113100","VIRGILIO 702-750",-34.760097,-58.441107
"6490113574","6490113574","IPARRAGUIRRE 963",-34.759782,-58.449562
"6260106087","6260106087","DOCTOR E. RESTELLI 1099-1299",-34.759665,-58.493525
"6539101933","6539101933","AVENIDA PATRICIOS 5699-5799",-34.700868,-58.700545
"635119982","635119982","SUIPACHA 1455-1499",-34.700432,-58.353483
"6427117206","6427117206","MARTÍN UGARTE 892",-34.699740,-58.489565
"6539108971","6539108971","AVENIDA BELLA VISTA 2779-2799",-34.698935,-58.654380
"635111966","635111966","AVENIDA CRISÓLOGO LARRALDE 4301-4399",-34.698832,-58.344037
"6434124661","6434124661","BV. GOBERNADOR MARTÍN RODRÍGUEZ 1052-1096",-34.698772,-58.380455
"6882110948","6882110948","AVENIDA MITRE Y ALEM-",-34.103670,-59.021817
"6882108811","6882108811","AVENIDA ANTA Y GENERAL PAZ",-34.098835,-59.035752
"6882125911","6882125911","DE LA TORRE 900-944 BUENOS AIRES",-34.093505,-59.029203
"6882123543","6882123543","COLECTORA NORTE Y ESCUELA 18",-34.092017,-59.175322
"628117733","628117733","LEROUX 2000-2098",-34.792773,-58.347527
"6274135131","6274135131","BOMBERO VOLUNTARIO V. SENZABELLO 1297",-34.791728,-58.265512
"6274100439","6274100439","AVENIDA GENERAL JOSÉ DE SAN MARTÍN 1499-1699",-34.791145,-58.278680
"6427129708","6427129708","DOMINGO SCARLATTI 5899",-34.790450,-58.639792
"628126493","628126493","GENERAL JOSÉ J. ARIAS 899-999",-34.789300,-58.366427
"691134914","691134914","CALLE 359_CALLE 301",-34.788852,-58.213947
"628104033","628104033","AV. SAN MARTÍN 3849-3899",-34.787567,-58.349730
"6490119945","6490119945","HÚSARES 801-899",-34.785640,-58.427357
"6490125907","6490125907","SAN ROQUE 2601-2699",-34.784723,-58.413133
"628111140","628111140","FALUCHO 5807",-34.784177,-58.324190
"6490117230","6490117230","JOSÉ GARIBALDI 2355-2511",-34.784135,-58.431162
"6274118977","6274118977","AV. TTE. GRAL. JUAN DOMINGO PERÓN 22",-34.810867,-58.277413
"6274122071","6274122071","AV. TTE. GRAL. JUAN DOMINGO PERÓN 32",-34.810845,-58.277247
"628124220","628124220","GENERAL MIGUEL SOLER 255",-34.810048,-58.405495
"6427134910","6427134910","RUTA",-34.809828,-58.636272
"691101166","691101166","CAMINO GENERAL BELGRANO 5424",-34.809672,-58.209495
"628126225","628126225","AVENIDA HIPÓLITO YRIGOYEN 13233",-34.809077,-58.401702
"691113751","691113751","HEROES DE MALVINAS 2902-2954",-34.809067,-58.186903
"6274106959","6274106959","AVENIDA BOSQUES 2599",-34.808840,-58.227832
"628131543","628131543","GARIBALDI 300-398",-34.808615,-58.343647
"628126536","628126536","AVENIDA TOMÁS ESPORA 1380-1398",-34.808055,-58.388665
"628107294","628107294","ADOLFO ALSINA 3600-3698",-34.807012,-58.350315
"6525100781","6525100781","RUTA PROVINCIAL 200 Y ROSA LUNA",-34.801827,-58.850225
"691128213","691128213","AVENIDA ANTÁRTIDA ARGENTINA 699-799",-34.801468,-58.219645
"6427107063","6427107063","ARECO 1501-1549",-34.801452,-58.627535
"691125831","691125831","CALLE 148_AVENIDA OTTO BERMBERG",-34.798780,-58.173087
"628129078","628129078","AV. SAN MARTÍN 2492",-34.797895,-58.368200
"6490127876","6490127876","COLECTORA CAMINO DE CINTURA",-34.797695,-58.444413
"6274116621","6274116621","AVENIDA GENERAL JOSÉ DE SAN MARTÍN 2126",-34.797690,-58.278542
"698102419","698102419","AVENIDA MONTEVIDEO_CALLE 11",-34.869300,-57.882487
"6441121512","6441121512","CAMINO GENERAL BELGRANO_CALLE 419",-34.869218,-58.097442
"698127084","698127084","AVENIDA MONTEVIDEO_CALLE 11",-34.868820,-57.883337
"6274128826","6274128826","CALLE 1155 2345",-34.868542,-58.188907
"6274125277","6274125277","CALLE 1282 600-698",-34.864417,-58.187847
"628118653","628118653","EMILIO BURGWARD 947",-34.860527,-58.384258
"6245118716","6245118716","L. CONTARELLI_MAIPÚ",-34.859413,-57.923102
"6441124776","6441124776","CAMINO PARQUE CENTENARIO_CALLE 43",-34.853127,-58.080335
"6270119339","6270119339","LUCIO SALVADORES 349-399",-34.848777,-58.514290
"628110329","628110329","AVENIDA TOMÁS ESPORA 4899-4999",-34.842307,-58.379447
"6274113003","6274113003","ROTONDA GUTIÉRREZ Y ALP",-34.841335,-58.189652
"691118153","691118153","CALLE 413 225-299",-34.836887,-58.186978
"6245124482","6245124482","CAMINO COSTANERO ALMIRANTE BROWN_CALLE 16",-34.836132,-57.944507
"6490104509","6490104509","PLUMERILLO 448",-34.725478,-58.425502
"6658110224","6658110224","AVENIDA LA PLATA 200-398",-34.724988,-58.286070
"6658104953","6658104953","AVENIDA HIPÓLITO YRIGOYEN 650-694",-34.724698,-58.259272
"6490119150","6490119150","VIRGEN DE ITATÍ 1001-1099",-34.723848,-58.437915
"6658109582","6658109582","MATIENZO 649",-34.723312,-58.244962
"6539113036","6539113036","AVENIDA DOCTOR RICARDO BALBÍN Y VARELA",-34.722070,-58.790745
"6427123472","6427123472","EL BENTEVEO 1496",-34.720507,-58.532580
"6490109974","6490109974","PLUMERILLO 902-1000",-34.719942,-58.429807
"635101068","635101068","CAMINO GRAL. MANUEL BELGRANO 5928",-34.719892,-58.341675
"6658124760","6658124760","ZAPIOLA 699-749",-34.719565,-58.290087
"6882117619","6882117619","AVENIDA ANTA Y BOLIVAR",-34.099438,-59.035217
"6274127316","6274127316","SUBTENIENTE JUAN OMAR ABRAHAM 2030",-34.796765,-58.253477
"6490124290","6490124290","ARISTÓBULO DE VALLE 499-599",-34.796528,-58.426262
"6274116726","6274116726","SUBTENIENTE JUAN OMAR ABRAHAM 2200-2298",-34.795710,-58.251447
"628105136","628105136","AVENIDA SAN MARTÍN 2936",-34.795142,-58.363227
"6490106287","6490106287","ANTÁRTIDA ARGENTINA 899-949",-34.794247,-58.417620
"628106903","628106903","MITRE 1800-1882",-34.793400,-58.384563
"628134738","628134738","FERRÉ 1126",-34.792367,-58.369523
"628120469","628120469","DOMINGO SALABERRY 5900-6098",-34.792007,-58.323027
"628116456","628116456","LEÓNARDO ROSALES 2634",-34.791185,-58.372382
"691135170","691135170","CALLE 21 700-778",-34.790100,-58.245037
"6270124025","6270124025","CASTELLANO",-34.789180,-58.523080
"691133132","691133132","AVENIDA DOCTOR LUIS AGOTE 1302-1400",-34.788620,-58.203545
"691131973","691131973","AVENIDA RANELAGH_AVENIDA INTENDENTE NICOLÁS MILAZ!",-34.787763,-58.184130
"6274100134","6274100134","CALLE 14 1302-1340",-34.787323,-58.290270
"628119768","628119768","AVENIDA SAN MARTÍN 3949-3999",-34.786778,-58.348273
"628128200","628128200","AVENIDA SAN MARTÍN 4287-4299",-34.784822,-58.344705
"691130694","691130694","CALLE 137 256",-34.784645,-58.207855
"628130837","628130837","JORGE 4079-4099",-34.783448,-58.352230
"691102212","691102212","HEROES DE MALVINAS 2467",-34.812267,-58.189225
"6260117369","6260117369","GENERAL ALVEAR 99-199",-34.812083,-58.460962
"628120268","628120268","2 DE ABRIL 3400-3498",-34.812037,-58.349190
"6274114273","6274114273","JUAN VASQUEZ 1025",-34.810512,-58.263947
"6274108272","6274108272","AVENIDA BOSQUES 2783",-34.807762,-58.226622
"691108192","691108192","CAMINO GENERAL BELGRANO 4649-4699",-34.804992,-58.217795
"628134326","628134326","JOSÉ HERNÁNDEZ 4299-4349",-34.802695,-58.340442
